port_id,port_name,lat,lon,region
61090,SHAKOTAN,43.866667,146.833333,
61110,MOMBETSU KO,44.35,143.35,
61120,ABASHIRI KO,44.016667,144.283333,
61130,NEMURO KO,43.333333,145.583333,
61140,HANASAKI KO,43.283333,145.583333,
61160,KUSHIRO KO,42.983333,144.366667,
61165,TOMAKOMAI KO,42.633333,141.633333,
61170,MURORAN KO,42.35,140.966667,
61180,MORI,42.116667,140.583333,
49500,GOPALPUR,19.25,84.916667,
47990,EL GHARDAQA,27.216667,33.85,
48015,RAS SHUKHIER,28.133333,33.283333,
48020,RAS GHARIB,28.35,33.1,
48040,AS SUWAYS,29.966667,32.55,
48045,EL-ADABIYA,29.866667,32.466667,
48050,EL ISMAILIYA,30.583333,32.283333,
48060,RAS ABU ZANIMAH,29.033333,33.116667,
48065,WADI FEIRAN,28.75,33.2,
48076,ELAT,29.55,34.95,
48090,AL AQABAH,29.516667,35.0,
32420,KETTLETOFT,59.233333,-2.6,
48120,YANBU,24.083333,38.05,
48140,JIDDAH,21.483333,39.183333,
48142,JIZAN,16.9,42.483333,
46780,SIMONSTOWN,-34.183333,18.433333,
46800,MOSSEL BAY,-34.183333,22.15,
46820,PORT ELIZABETH,-33.966667,25.616667,
33770,BELFAST,54.616667,-5.9,
33790,LARNE,54.85,-5.8,
33820,COLERAINE,55.133333,-6.666667,
33830,LONDONDERRY,55.0,-7.316667,
33060,ORNSAY,57.15,-5.8,
32290,BUCKIE HARBOR,57.683333,-2.966667,
32300,LOSSIEMOUTH,57.716667,-3.283333,
32320,BURGHEAD,57.7,-3.5,
32330,INVERNESS,57.483333,-4.233333,
32340,CROMARTY,57.683333,-4.033333,
32350,INVERGORDON,57.683333,-4.166667,
32360,PORTMAHOMACK HARBOR,57.833333,-3.833333,
32370,HELMSDALE HARBOR,58.116667,-3.65,
32380,WICK,58.433333,-3.083333,
32410,PIEROWALL,59.3,-2.983333,
32430,WHITEHALL,59.133333,-2.6,
32440,KIRKWALL,58.983333,-2.966667,
32450,STROMNESS,58.966667,-3.3,
32460,SOUTH NESS,58.8,-3.2,
32470,ST MARGARETS HOPE,58.833333,-2.95,
32490,LYNESS,58.833333,-3.2,
32500,SCAPA BAY,58.95,-2.983333,
13040,IMBITUBA,-28.233333,-48.666667,
12935,GUAIBA ISLAND TERMINAL,-23.016667,-44.033333,
12900,DTSE / GEGUA OIL TERMINAL,-22.816667,-43.15,
12950,GEBIG,-23.05,-44.216667,
60810,DE KASTRI,51.466667,140.783333,
60820,NIKOLAYEVSK NA AMUR,53.133333,140.733333,
60860,OKHA,53.55,143.0,
60880,PORONAYSK,49.216667,143.133333,
60920,KORSAKOV,46.616667,142.766667,
60930,NEVELSK,46.666667,141.866667,
60940,KHOLMSK,47.05,142.05,
60980,UGLEGORSK,49.083333,142.033333,
60990,LESOGORSK,49.45,142.133333,
60380,MASAN,35.183333,128.566667,
60390,PUSAN,35.1,129.033333,
60400,ULSAN,35.45,129.4,
59910,WENZHOU,28.016667,120.65,
59950,ZHEN HAI,29.95,121.7,
59960,ZHOUSHAN,30.0,122.1,
59985,JIANGYIN,31.916667,120.233333,
59987,GAOGANG,32.283333,119.85,
59988,YANGZHOU,32.266667,119.433333,
59995,ZHENJIANG,32.216667,119.433333,
60000,NANJING,32.083333,118.75,
60010,WU HU,31.333333,118.366667,
60030,ANKINGCHENG,30.516667,117.033333,
60060,HANKOW,30.583333,114.283333,
60110,WANXIAN,30.816667,108.433333,
60120,CHUNG CHING,29.566667,106.633333,
60130,LIANYUNGANG,34.733333,119.45,
60140,QINGDAO GANG,36.033333,120.266667,
46280,DOUALA,4.05,9.683333,
46285,KOLE OIL TERMINAL,4.25,8.55,
46305,BATA,1.866667,9.766667,
46430,LIBREVILLE,0.383333,9.45,
46435,PORT OWENDO,0.283333,9.5,
46440,PORT GENTIL,-0.7,8.8,
46445,CAP LOPEZ,-0.633333,8.716667,
53050,SAILOLOF,-1.25,130.75,
52260,BAUBAU,-5.466667,122.616667,
52270,RAHA ROADSTEAD,-4.85,122.733333,
28510,OSMUSSAAR,59.3,23.366667,
52295,POMALAA,-4.166667,121.6,
52320,UJUNG PANDANG,-5.133333,119.4,
52350,DONGGALA,-0.65,119.733333,
52440,TAHUNA,3.616667,125.483333,
52510,TERNATE,0.783333,127.383333,
52523,LABUHA,-0.633333,127.466667,
52680,BULA,-3.1,130.5,
52695,SALAWATI,-1.35,130.983333,
52720,AMBON,-3.683333,128.166667,
52760,NAMLEA,-3.283333,127.083333,
52870,SAUMLAKI,-7.983333,131.3,
52940,SERUI,-1.9,136.25,
53010,MANOKWARI ROAD,-0.866667,134.083333,
52235,MANGKASA OIL TERMINAL,-2.733333,121.066667,
52240,KENDARI,-3.966667,122.583333,
53045,KASIM TERMINAL,-1.3,131.016667,
51585,BINTULU PORT,3.266667,113.066667,
51590,MIRI,4.383333,113.966667,
51600,LUTONG,4.466667,114.0,
51620,MUARA HARBOR,5.033333,115.066667,
51630,BANDAR SERI BEGAWAN,4.883333,114.883333,
51645,SERIA OIL LOADING TERMINAL,4.616667,114.316667,
39740,PORTOVECCHIO DI PIOMBINO,42.933333,10.55,
39790,PORTO SANTO STEFANO,42.433333,11.116667,
39810,CIVITAVECCHIA,42.1,11.783333,
39820,FIUMICINO,41.766667,12.233333,
39830,ANZIO,41.45,12.633333,
39860,GAETA,41.2,13.583333,
39940,POZZUOLI,40.816667,14.116667,
39950,BAGNOLI,40.816667,14.166667,
39960,NAPOLI,40.85,14.266667,
39250,CARLOFORTE,39.15,8.316667,
39260,PORTO VESME,39.2,8.4,
32590,SCALLOWAY,60.133333,-1.283333,
32600,LERWICK,60.15,-1.15,
32630,SULLOM VOE,60.466667,-1.3,
32680,TVOROYRI,61.55,-6.8,
32690,TORSHAVN,62.0,-6.75,
32700,KONGSHAVN,62.116667,-6.733333,
32720,VESTMANNA,62.15,-7.166667,
41610,KOTOR,42.416667,18.766667,
32730,SORVAGUR,62.083333,-7.25,
32740,FUGLAFJORDUR,62.25,-6.8,
32750,KLAKSVIK,62.233333,-6.583333,
32780,SCRABSTER HARBOR,58.616667,-3.55,
32820,ULLAPOOL,57.9,-5.15,
32830,AULTBEA,57.833333,-5.583333,
32850,GAIRLOCH,57.716667,-5.683333,
32890,PLOCKTON,57.333333,-5.65,
32900,KYLE OF LOCHALSH,57.283333,-5.716667,
32910,KYLEAKIN,57.266667,-5.733333,
32920,BROADFORD BAY,57.25,-5.883333,
32930,PORTREE HARBOR,57.416667,-6.2,
61650,HIROSHIMA,34.35,132.466667,
12820,PORTOCEL,-19.85,-40.05,
12857,SANTA CLARA,-20.883333,-51.366667,
13115,JOSE IGNACIO,-34.95,-54.7,
41590,RISAN,42.516667,18.7,
41620,TIVAT,42.433333,18.7,
41640,BAR,42.083333,19.083333,
46472,DJENO TERMINAL,-4.933333,11.9,
46473,N'KOSSA TERMINAL,-5.266667,11.566667,
46530,MATADI,-5.816667,13.45,
46131,TIN CAN ISLAND,6.35,3.35,
46150,SAPELE,5.9,5.683333,
46170,WARRI,5.516667,5.733333,
46178,YOHO TERMINAL,4.016667,7.466667,
46180,SEA EAGLE TERMINAL,4.8,5.316667,
46195,QUA IBOE OIL TERMINAL,4.233333,8.033333,
46200,PENNINGTON OIL TERMINAL,4.25,5.616667,
46206,BONNY OFFSHORE TERMINAL,4.183333,7.233333,
28390,LOMONOSOV,59.916667,29.766667,
28400,KRONSHTADT,59.983333,29.783333,
28410,REKA LUGA,59.666667,28.316667,
28440,KUNDA,59.533333,26.533333,
28480,TALLINN,59.45,24.766667,
28505,PALDISKI,59.35,24.033333,
28550,PARNU,58.383333,24.5,
28610,RIGA,56.95,24.1,
28620,VENTSPILS,57.4,21.533333,
46446,OGUENDJO TERMINAL,-1.466667,8.916667,
46453,GAMBA OIL TERMINAL,-2.833333,10.0,
46470,POINTE NOIRE,-4.783333,11.833333,
46487,MALONGO OIL TERMINAL,-5.433333,12.083333,
46490,CABINDA,-5.533333,12.2,
46510,BANANA,-5.983333,12.383333,
46520,BOMA,-5.85,13.05,
46547,PALANCA TERMINAL,-6.95,12.4,
46550,PORTO DO AMBRIZ,-7.833333,13.1,
46560,LUANDA,-8.8,13.25,
46590,LOBITO,-12.333333,13.566667,
46610,NAMIBE,-15.2,12.15,
46670,GEORGETOWN,-7.933333,-14.416667,
46205,BONNY,4.45,7.166667,
45825,BANJUL,13.45,-16.566667,
45835,RIO CACHEU,12.283333,-16.233333,
45838,BISSAU,11.866667,-15.633333,
45845,VICTORIA,10.816667,-14.566667,
45850,KAMSAR,10.633333,-14.616667,
45855,CONAKRY,9.516667,-13.716667,
45857,BENTI,9.166667,-13.2,
60150,WEIHAI,37.5,122.1,
60160,YANTAI,37.55,121.45,
60170,LONGKOU GANG,37.633333,120.283333,
60180,DAGU TANGGU,38.966667,117.666667,
60190,TIANJIN XIN GANG,38.966667,117.833333,
60210,HULUDAO GANG,40.7,120.983333,
60220,YINGKOU,40.683333,122.233333,
60240,LUSHUN,38.783333,121.25,
60250,DALIAN,38.916667,121.666667,
38670,PUERTO DE ALCUDIA,39.833333,3.133333,
38690,MAHON,39.883333,4.266667,
38590,ROSAS,42.266667,3.183333,
38720,PORT-VENDRES,42.516667,3.116667,
38730,PORT-LA-NOUVELLE,43.016667,3.066667,
38750,SETE,43.4,3.7,
38770,PORT SAINT LOUIS DU RHONE,43.383333,4.816667,
38775,FOS,43.416667,4.883333,
38780,PORT-DE-BOUC,43.4,4.983333,
38810,MARSEILLE,43.316667,5.366667,
38920,SAINT-TROPEZ,43.266667,6.633333,
38940,SAINT-RAPHAEL,43.416667,6.766667,
38960,CANNES,43.55,7.016667,
38980,ANTIBES,43.583333,7.133333,
38990,NICE,43.7,7.283333,
39000,VILLEFRANCHE,43.7,7.316667,
39025,MONACO,43.733333,7.416667,
39060,BASTIA,42.7,9.45,
39080,BONIFACIO,41.383333,9.166667,
39090,PORT DE PROPRIANO,41.683333,8.9,
39100,PORT D' AJACCIO,41.916667,8.75,
39110,CALVI,42.566667,8.75,
39120,L'ILE ROUSSE,42.633333,8.933333,
39140,LA MADDALENA,41.2,9.416667,
39180,OLBIA,40.916667,9.5,
39190,ARBATAX,39.933333,9.7,
39210,CAGLIARI,39.216667,9.116667,
39215,SARROCH OIL TERMINAL,39.083333,9.033333,
51680,VICTORIA,5.283333,115.233333,
51690,KOTA KINABALU,5.983333,116.066667,
51710,KUDAT,6.883333,116.85,
51720,PELABUHAN SANDAKAN,5.833333,118.116667,
51730,LAHAD DATU,5.016667,118.316667,
51770,TANJUNG ARANG  (BUNYU),3.466667,117.833333,
51780,LINGKAS,3.283333,117.6,
51800,TANJUNGREDEB,2.15,117.483333,
51810,BENOA,0.983333,117.966667,
51811,BONTANG LNG TERMINAL,0.1,117.483333,
51815,TANJUNG SANTAN,-0.1,117.533333,
45753,TANGIER-MEDITERRANEAN,35.9,-5.516667,
41415,NEUM,42.916667,17.6,
48770,MAGDALLA,21.15,72.75,
48790,HAZIRA,21.083333,72.633333,
62150,BEPPU,33.316667,131.516667,
62130,KOKURA KO,33.883333,130.883333,
61700,SHIMONOSEKI,33.933333,130.933333,
48900,RATNAGIRI,16.983333,73.283333,
49170,TRIVANDRUM,8.483333,76.95,
61855,SHIMMINATO,36.766667,137.116667,
15270,GUAYAQUIL,-2.2,-79.883333,
36855,MONTOIR,47.3,-2.133333,
28640,LIEPAJA,56.516667,21.016667,
28660,KLAIPEDA,55.716667,21.116667,
28680,BALTIYSK,54.633333,19.9,
28690,KALININGRAD,54.7,20.483333,
28710,GDANSK,54.35,18.666667,
28715,PORT POLNOCHNY,54.4,18.716667,
28720,NOWY PORT,54.416667,18.666667,
28740,GDYNIA,54.533333,18.55,
28770,USTKA,54.583333,16.85,
28790,DARLOWO,54.433333,16.416667,
28800,KOLOBRZEG,54.216667,15.55,
28820,SWINOUJSCIE,53.916667,14.266667,
28823,SZCZECIN,53.416667,14.55,
28828,WOLGAST,54.05,13.783333,
28840,SASSNITZ,54.516667,13.65,
28170,EKENAS,59.983333,23.433333,
28180,JUSSARO,59.833333,23.566667,
28185,PORKKALA,60.083333,24.383333,
27280,KARLSBORG,65.8,23.283333,
27330,SANDVIK,65.733333,23.766667,
27400,TORNIO,65.766667,24.166667,
27410,KEMI,65.733333,24.566667,
27520,OULU,65.016667,25.4,
60290,KYOMIP'O,38.733333,125.616667,
27530,RAAHE,64.683333,24.416667,
27540,HIMANKA,64.0,23.65,
27560,KOKKOLA,63.85,23.016667,
27570,JAKOBSTAD,63.683333,22.666667,
27580,NYKARLEBY,63.516667,22.533333,
27590,KANTLAX,63.416667,22.283333,
27610,HELLNAS,63.283333,22.233333,
27650,VAASA,63.1,21.583333,
27670,KASKINEN,62.383333,21.233333,
27680,KRISTINESTAD,62.283333,21.4,
27750,MANTYLUOTO,61.6,21.483333,
27755,TAHKOLUOTO,61.633333,21.4,
14190,PUERTO NATALES,-51.716667,-72.566667,
14197,PUERTO CHACABUCO,-45.466667,-72.833333,
14220,PUERTO CASTRO,-42.483333,-73.766667,
14250,PUERTO QUEMCHI,-42.15,-73.483333,
14270,PUERTO MONTT,-41.483333,-72.966667,
14330,PUERTO DE CORRAL,-39.866667,-73.433333,
14340,BAHIA DE VALDIVIA,-39.8,-73.25,
14380,LOTA,-37.1,-73.15,
60280,NAMPO,38.716667,125.4,
60310,HAEJU HANG,38.0,125.7,
47946,SAWAKIN HARBOR,19.133333,37.35,
60320,INCHON,37.466667,126.616667,
60330,KUNSAN,35.983333,126.616667,
60340,MOKPO,34.783333,126.383333,
60350,CHEJU HANG,33.516667,126.533333,
60370,YOSU,34.733333,127.75,
59340,SURIGAO CITY,9.783333,125.5,
59345,NASIPIT PORT,8.983333,125.333333,
59380,HINATUAN,8.366667,126.333333,
59385,MANGAGOY,8.233333,126.316667,
59400,MATI,6.95,126.216667,
59430,DAVAO,7.066667,125.616667,
59485,GENERAL SANTOS,6.116667,125.183333,
59500,POLLOC (COTABATO),7.35,124.216667,
59530,PAGADIAN,7.833333,123.433333,
59550,MARGOSATUBIG,7.583333,123.166667,
59575,SANTA CLARA,7.783333,122.683333,
59580,ZAMBOANGA,6.9,122.066667,
59670,JIMENEZ,8.333333,123.866667,
59680,PORT OZAMIS,8.133333,123.85,
59700,ILIGAN,8.233333,124.233333,
59710,CAGAYAN DE ORO,8.5,124.666667,
59720,BUGO,8.516667,124.75,
59725,VILLANUEVA,8.583333,124.766667,
59760,BUTUAN CITY,8.95,125.533333,
59770,BASILIAN CITY (ISABELA),6.716667,121.966667,
59780,PORT HOLLAND,6.55,121.866667,
59800,JOLO,6.05,121.0,
59820,SIASI,5.55,120.816667,
45862,FREETOWN,8.5,-13.233333,
45865,PEPEL,8.583333,-13.05,
45867,BONTHE,7.533333,-12.5,
45880,PORTO GRANDE,16.883333,-25.0,
45910,PORTO DA PRAIA,14.916667,-23.516667,
45940,MONROVIA,6.316667,-10.816667,
45950,BUCHANAN,5.866667,-10.066667,
45952,GREENVILLE,4.983333,-9.05,
45955,CAPE PALMAS,4.366667,-7.716667,
45963,SAN PEDRO,4.733333,-6.616667,
51820,SAMARINDA,-0.516667,117.116667,
51830,SENIPAH OIL TERMINAL,-0.95,117.166667,
51840,BALIKPAPAN,-1.25,116.816667,
51845,LAWI LAWI OIL TERMINAL,-1.45,116.766667,
51850,GUNUNG BATU BESAR,-2.616667,116.3,
51860,KOTA BARU,-3.233333,116.216667,
51890,BANJARMASIN,-3.333333,114.583333,
51920,KUMAI,-2.75,111.716667,
51941,PONTIANAK,-0.016667,109.333333,
52040,MANADO,1.5,124.833333,
52090,GORONTALO,0.5,123.05,
52140,POSO,-1.366667,120.75,
52230,KOLONODALE,-1.983333,121.333333,
51560,KUCHING,1.566667,110.35,
51580,SIBU,2.283333,111.816667,
51583,SARIKEI,2.133333,111.533333,
50805,SUNGAIPAKNING,1.35,102.166667,
50910,FLYING FISH COVE,-10.416667,105.7,
50925,BANTEN,-6.016667,105.966667,
50930,ANYER LOR,-6.05,105.916667,
50935,TANJUNG SEKONG,-5.916667,106.0,
50970,JAKARTA,-6.1,106.883333,
51010,CIREBON,-6.716667,108.566667,
38630,PALMA DE MALLORCA,39.566667,2.633333,
39220,PORTO PONTE ROMANO,39.05,8.466667,
38150,SANTA CRUZ DE LA PALMA,28.683333,-17.75,
38160,SANTA CRUZ DE TENERIFE,28.466667,-16.233333,
38170,LAS PALMAS,28.15,-15.416667,
38180,PUERTO DEL ROSARIO,28.5,-13.85,
38190,ARRECIFE,28.95,-13.533333,
38220,HUELVA,37.25,-6.95,
38270,SEVILLA,37.366667,-6.0,
38280,ROTA,36.616667,-6.333333,
38290,CADIZ,36.533333,-6.3,
13780,MAR DEL PLATA,-38.033333,-57.533333,
13020,ITAJAI,-26.916667,-48.633333,
13050,LAGUNA,-28.5,-48.783333,
13055,TRAMANDAI,-29.983333,-50.133333,
13060,RIO GRANDE,-32.05,-52.083333,
13070,PELOTAS,-31.783333,-52.333333,
13080,PORTO ALEGRE,-30.033333,-51.233333,
13100,LA PALOMA,-34.65,-54.15,
13130,PUERTO SAUCE,-34.433333,-57.45,
13160,FRAY BENTOS,-33.116667,-58.316667,
13170,PAYSANDU,-32.316667,-58.066667,
13570,PARANA,-31.716667,-60.533333,
13580,DIAMANTE,-32.066667,-60.65,
13600,PUERTO SAN MARTIN,-32.716667,-60.733333,
13640,VILLA CONSTITUCION,-33.233333,-60.333333,
13650,SAN NICOLAS,-33.333333,-60.233333,
13660,RAMALLO,-33.483333,-60.016667,
13700,ZARATE,-34.083333,-59.033333,
13710,CAMPANA,-34.15,-58.966667,
13720,CONCORDIA,-31.4,-58.033333,
45990,PORT BOUET,5.233333,-3.966667,
46000,ABIDJAN,5.25,-4.016667,
46040,TAKORADI,4.883333,-1.733333,
46045,SEKONDI,4.95,-1.7,
46063,SALTPOND,5.2,-1.05,
46070,TEMA,5.616667,0.016667,
46090,LOME,6.133333,1.283333,
46095,KPEME,6.2,1.516667,
46110,COTONOU,6.35,2.433333,
46130,LAGOS,6.4,3.4,
46135,ESCRAVOS OIL TERMINAL,5.5,5.0,
46140,KOKO,6.0,5.466667,
46160,FORCADOS,5.366667,5.433333,
46165,BURUTU,5.35,5.5,
46190,BRASS OIL TERMINAL,4.066667,6.283333,
45821,RUFISQUE,14.7,-17.283333,
45822,KARABANE,12.566667,-16.666667,
45420,LA GOULETTE,36.8,10.3,
45430,TUNIS,36.8,10.25,
45435,TAZERKA OIL TERMINAL,36.6,11.683333,
45440,BANZART,37.283333,9.883333,
59860,FUZHOU,26.083333,119.3,
58770,ORMOC,11.0,124.6,
58800,PALOMPON,11.05,124.383333,
58870,TAGBILARAN,9.65,123.85,
58890,TUBIGAN,9.95,123.966667,
58960,CEBU,10.3,123.9,
59015,TOLEDO,10.366667,123.633333,
59070,SAN CARLOS,10.483333,123.416667,
59080,BAIS,9.6,123.116667,
59090,DUMAGUETE,9.316667,123.3,
59100,LAZI,9.133333,123.633333,
59120,PULUPANDAN,10.516667,122.8,
38310,ALGECIRAS,36.133333,-5.433333,
38330,EUROPA POINT,36.133333,-5.35,
38370,MALAGA,36.716667,-4.416667,
38375,MOTRIL,36.75,-3.516667,
38380,ADRA,36.733333,-3.033333,
38390,ALMERIA,36.833333,-2.466667,
38395,PUERTO DE CARBONERAS,37.0,-1.883333,
38410,AGUILAS,37.4,-1.566667,
38420,HORNILLO,37.4,-1.55,
51030,PEKALONGAN,-6.85,109.7,
38430,CARTAGENA,37.583333,-0.983333,
38435,TORREVIEJA,37.966667,-0.683333,
38440,ALICANTE,38.333333,-0.483333,
38460,PUERTO DE GANDIA,39.0,-0.15,
38480,VALENCIA,39.45,-0.316667,
38490,SAGUNTO,39.65,-0.216667,
38495,BURRIANA,39.883333,-0.05,
38500,EL GRAO,39.966667,0.016667,
38540,TARRAGONA,41.1,1.233333,
38550,BARCELONA,41.35,2.166667,
38570,SAN FELIU DE GUIXOLS,41.783333,3.033333,
38580,PALAMOS,41.833333,3.116667,
38130,FUNCHAL,32.633333,-16.916667,
37290,PUERTO DE PASAJES,43.333333,-1.933333,
37350,BERMEO,43.416667,-2.716667,
37400,PUERTO DE BILBAO,43.35,-3.05,
37470,SANTANDER,43.466667,-3.783333,
37560,GIJON,43.55,-5.666667,
12740,PORTO DE SUAPE,-8.4,-34.966667,
51020,TEGAL,-6.85,109.133333,
51040,SEMARANG,-6.95,110.416667,
51070,REMBANG,-6.7,111.35,
51100,TUBAN,-6.733333,112.15,
51130,SURABAYA,-7.2,112.733333,
51200,PANARUKAN,-7.7,113.933333,
29870,KERTEMINDE,55.45,10.666667,
45730,CEUTA,35.9,-5.316667,
28187,INKOO,60.016667,23.916667,
27850,TOLKKINEN,60.033333,25.583333,
27537,RAHJA,64.2,23.733333,
45720,PORT D AL HOCEIMA,35.25,-3.916667,
48130,RABIGH,22.733333,38.983333,
50180,BLINYU,-1.633333,105.783333,
48297,RAS LAFFAN,25.916667,51.583333,
50250,TANJUNGPANDAN,-2.75,107.633333,
50330,PALEMBANG,-2.983333,104.766667,
46650,LUDERITZ BAY,-26.65,15.15,
59150,PORT CAPIZ,11.6,122.716667,
59180,JORDAN,10.666667,122.583333,
59190,ILOILO,10.7,122.583333,
59270,PUERTO PRINCESA,9.733333,118.733333,
58740,MAASIN,10.133333,124.833333,
58750,BAYBAY,10.683333,124.8,
58205,SORSOGON,12.966667,124.0,
58315,SANTA CRUZ (MARINDUQUE ISL),13.5,122.066667,
58320,BATANGAS CITY,13.75,121.05,
58350,NASUGBU,14.083333,120.616667,
58370,MANILA,14.583333,120.966667,
58390,MARIVELES,14.433333,120.483333,
58410,MASINLOC,15.55,119.95,
58460,SAN FERNANDO HARBOR,16.616667,120.316667,
58540,CALAPAN,13.416667,121.183333,
58590,PORT ROMBLON,12.583333,122.266667,
58620,MASBATE,12.366667,123.616667,
58630,LAOANG,12.566667,125.016667,
58640,PORT BORONGAN,11.6,125.433333,
58655,GUIUAN,11.033333,125.716667,
58670,CATBALOGAN,11.766667,124.883333,
58690,TACLOBAN,11.25,125.0,
57745,FANG-CHENG,21.75,108.35,
57750,BEIHAI,21.483333,109.066667,
57760,HAIKOU,20.05,110.283333,
57768,BASUO,19.1,108.616667,
57770,ZHANJIANG,21.2,110.4,
57775,LON SHUI TERMINAL,20.833333,115.683333,
57810,MACAU,22.183333,113.566667,
57825,HUANGPUXINGANG,23.05,113.5,
57830,GUANGZHOU,23.116667,113.233333,
45490,ANNABA,36.916667,7.766667,
45510,SKIKDA,36.883333,6.916667,
45520,COLLO,37.0,6.583333,
45550,BEJAIA,36.75,5.083333,
45560,DELLYS,36.916667,3.916667,
45570,ALGER,36.766667,3.066667,
45610,TENES,36.533333,1.316667,
45620,MOSTAGANEM,35.933333,0.083333,
45630,ARZEW,35.85,-0.3,
45635,ARZEW EL DJEDID,35.816667,-0.25,
45640,ORAN,35.7,-0.633333,
45650,MERS EL KEBIR,35.733333,-0.7,
51220,CILACAP,-7.733333,109.0,
51260,BENOA,-8.75,115.216667,
51290,LABUHANHAJI,-8.7,116.566667,
51320,MAUMERE,-8.616667,122.216667,
51330,LARANTUKA,-8.35,122.983333,
51340,ENDE,-8.833333,121.65,
51500,TAREMPAH,3.216667,106.216667,
50790,BENGKALIS,1.466667,102.1,
50010,PULAU BUKOM,1.233333,103.766667,
50015,PULAU SEBAROK,1.2,103.8,
50030,TANJUNGUBAN,1.066667,104.216667,
50040,TANJUNGPINANG,0.916667,104.45,
50045,KIJANG,0.85,104.6,
50060,PULAU SAMBU,1.166667,103.9,
50100,DABO,-0.5,104.566667,
50120,TOBOALI,-3.016667,106.45,
50140,MUNTOK,-2.066667,105.166667,
50210,PANGKALPINANG,-2.116667,106.133333,
50350,CINTA OIL TERMINAL,-5.5,106.233333,
50380,PANJANG,-5.466667,105.316667,
50450,TELUK BAYUR,-1.0,100.366667,
37600,AVILES,43.6,-5.933333,
37670,RIBADEO,43.533333,-7.033333,
37690,SAN CIPRIAN,43.7,-7.433333,
37740,FERROL,43.483333,-8.233333,
37770,LA CORUNA,43.366667,-8.4,
37830,VILLAGARCIA DE AROSA,42.6,-8.766667,
37860,MARIN,42.4,-8.7,
37900,VIGO,42.233333,-8.716667,
23950,BROFJORDEN,58.383333,11.416667,
24000,STENUNGSUND,58.066667,11.833333,
28484,MUUGA-PORT OF TALLIN,59.5,24.95,
23817,FAGERSTRAND,59.733333,10.6,
48590,GWADAR,25.133333,62.3,
49030,NEW MANGALORE,12.916667,74.816667,
57472,PETCHBURI TERMINAL,13.166667,100.15,
57443,RAYONG TPI TERMINAL,12.633333,101.3,
57461,SIAM SEAPORT,13.133333,100.883333,
49890,LUMUT,4.233333,100.633333,
51586,TAWA,4.25,117.883333,
49910,TELUK ANSON,4.016667,101.016667,
49454,KAMARAJAR PORT,13.266667,80.316667,
51635,LUMUT,4.716667,114.45,
48613,SIKKA,22.433333,69.833333,
48617,MUNDRA,22.733333,69.7,
48674,DAHEJ,21.7,72.533333,
50517,JABUNG BATANGHARI MARINE TERMINAL,-0.916667,104.066667,
50740,KUALA KAPUS,3.0,114.366667,
50070,LALANG MARINE TERMINAL,1.183333,102.216667,
52297,PAREPARE,-4.0,119.616667,
51501,BELANAK FIELD TERMINAL,4.15,106.25,
51484,BELIDA MARINE TERMINAL,4.133333,105.133333,
51254,TANJUNG BENETE,-8.9,116.75,
51205,CELUKAN BAWANG,-8.183333,114.833333,
48057,ZAFARANA TERMINAL,29.166667,32.683333,
47989,ZEIT BAY LPG TERMINAL,27.8,33.566667,
31360,WHITSTABLE,51.366667,1.033333,
31370,SHEERNESS,51.45,0.75,
31376,THAMESPORT,51.433333,0.7,
31390,CHATHAM DOCKS,51.4,0.55,
31420,GRAVESEND,51.45,0.366667,
31470,LONDON,51.5,-0.083333,
31506,COLCHESTER,51.883333,0.916667,
31530,HARWICH,51.95,1.283333,
47680,SAINT-DENIS,-20.866667,55.45,
47695,PORT OUEST,-20.933333,55.283333,
47720,PORT LOUIS,-20.15,57.5,
47750,PORT MATHURIN,-19.683333,63.416667,
48540,JASK,25.633333,57.766667,
47855,DORALEH,11.6,43.083333,
47830,BOOSAASO,11.283333,49.183333,
47942,AL KHAIR OIL TERMINAL,19.583333,37.25,
47944,BESHAYER OIL TERMINAL,19.4,37.316667,
48273,UMM AL QAYWAYN,25.583333,55.583333,
48272,SHARJAH OFFSHORE TERMINAL,25.583333,55.4,
48271,ASH SHARIQAH,25.416667,55.366667,
48270,AJMAN,25.416667,55.433333,
48269,AL JAZEERA PORT,25.716667,55.783333,
48266,ZIRKUH PETROLEUM PORT,25.016667,53.0,
50440,BENGKULU,-3.783333,102.25,
45530,JIJEL,36.833333,5.783333,
25610,NORRSUNDET,60.933333,17.166667,
57439,SONGKHLA HARBOR,7.216667,100.583333,
57642,DAI HANG,8.483333,108.683333,
25640,VALLVIK,61.183333,17.166667,
57655,MUI VUNG TAU,10.316667,107.066667,
25720,SODERHAMN,61.3,17.083333,
57572,PHU MY,10.583333,107.033333,
45660,BENI SAF,35.3,-1.383333,
45670,GHAZAOUET,35.1,-1.866667,
45755,TANGER,35.783333,-5.816667,
45762,PORT NADOR,35.283333,-2.933333,
45785,KENITRA,34.3,-6.6,
45790,MOHAMMEDIA,33.716667,-7.4,
45793,CASABLANCA,33.6,-7.616667,
45797,SAFI,32.3,-9.25,
45800,ESSAOUIRA,31.5,-9.783333,
45808,AD DAKHLA,23.7,-15.916667,
45812,NOUADHIBOU,20.916667,-17.05,
45818,ST LOUIS,16.016667,-16.516667,
45820,DAKAR,14.683333,-17.433333,
45390,MERSA SFAX,34.733333,10.766667,
45400,MAHDIA,35.5,11.066667,
45410,SOUSSE,35.833333,10.65,
44860,MERSIN,36.8,34.633333,
44870,BOTAS,36.883333,35.933333,
44880,ISKENDERUN,36.6,36.166667,
44900,KYRENIA,35.35,33.333333,
44910,XEROS,35.133333,32.833333,
44950,LIMASSOL,34.666667,33.05,
44960,LARNACA,34.916667,33.65,
44965,DHEKELIA,34.966667,33.716667,
44970,FAMAGUSTA,35.116667,33.933333,
45003,TARTUS,34.9,35.866667,
45005,BANIYAS,35.183333,35.95,
45010,AL LADHIQIYAH,35.533333,35.766667,
57840,HONG KONG,22.266667,114.2,
57860,SHAN T OU,23.366667,116.683333,
57870,XIAMEN,24.45,118.066667,
57890,CHI-LUNG,25.133333,121.766667,
57900,SU-AO,24.6,121.866667,
57910,HUA-LIEN KANG,23.983333,121.6,
57920,KAO-HSIUNG,22.616667,120.25,
57935,TAN-SHUI,25.183333,121.4,
57950,PENG-HU KANG,23.583333,119.533333,
57955,TAI-CHUNG KANG,24.3,120.5,
57970,BASCO,20.45,121.966667,
37940,VIANA DO CASTELO,41.7,-8.833333,
37950,PORTO DE LEIXOES,41.183333,-8.7,
37960,OPORTO,41.15,-8.666667,
37970,AVEIRO,40.65,-8.65,
37980,FIGUEIRA DA FOZ,40.15,-8.85,
37990,LISBOA,38.7,-9.166667,
38000,SETUBAL,38.516667,-8.9,
38005,SINES,37.95,-8.866667,
38030,FARO,37.033333,-7.933333,
38050,VILA REAL DE S ANTONIO,37.183333,-7.4,
37190,BORDEAUX,44.866667,-0.566667,
36040,SAINT HELIER HARBOUR,49.183333,-2.116667,
36260,PAIMPOL,48.783333,-3.05,
36460,RADE DE BREST,48.383333,-4.5,
36620,CONCARNEAU,47.866667,-3.916667,
36680,LORIENT,47.75,-3.35,
36850,ST NAZAIRE,47.283333,-2.2,
36860,DONGES,47.3,-2.066667,
36900,NANTES,47.2,-1.566667,
36960,LES SABLES D' OLONNE,46.5,-1.8,
37000,LA PALLICE,46.166667,-1.216667,
37010,LA ROCHELLE,46.15,-1.15,
37040,ROCHEFORT,45.933333,-0.95,
37050,TONNAY CHARENTE,45.933333,-0.9,
37120,LE VERDON,45.55,-1.05,
37150,PAUILLAC,45.2,-0.75,
37160,BLAYE,45.133333,-0.666667,
48055,AIN SUKHNA TERMINAL,29.583333,32.366667,
48121,KING FAHD PORT,23.95,38.216667,
48155,RAS ISA MARINE TERMINAL,15.133333,42.6,
57777,SHEKOU,22.466667,113.866667,
50340,ARDJUNA OIL FIELD,-5.883333,107.716667,
60230,BAYUQUAN,40.3,122.083333,
31550,IPSWICH,52.05,1.166667,
31570,LOWESTOFT,52.483333,1.75,
31580,GREAT YARMOUTH,52.616667,1.733333,
31610,KING'S LYNN,52.75,0.4,
31630,BOSTON,52.966667,-0.016667,
31640,GRIMSBY,53.583333,-0.066667,
31650,IMMINGHAM,53.633333,-0.2,
31660,KINGSTON UPON HULL,53.75,-0.283333,
31670,GOOLE,53.7,-0.833333,
31680,BRIDLINGTON,54.083333,-0.183333,
31690,SCARBOROUGH,54.283333,-0.4,
31700,WHITBY,54.483333,-0.616667,
31140,ROTTERDAM,51.9,4.483333,
30630,RINGKOBING,56.083333,8.25,
30640,ESBJERG,55.466667,8.45,
30680,HUSUM,54.483333,9.05,
30710,BRUNSBUTTEL ELBAHAFEN,53.883333,9.166667,
30720,BRUNSBUTTEL CANAL TERMINALS,53.9,9.15,
30730,RENDSBURG,54.3,9.683333,
30760,GLUCKSTADT,53.783333,9.416667,
30780,HAMBURG,53.55,9.933333,
30800,CUXHAVEN,53.866667,8.716667,
30810,BREMERHAVEN,53.533333,8.583333,
30840,NORDENHAM,53.483333,8.483333,
30850,BRAKE,53.333333,8.483333,
30860,ELSFLETH,53.233333,8.466667,
30870,OLDENBURG,53.116667,8.216667,
30900,BREMEN,53.133333,8.766667,
30910,WILHELMSHAVEN,53.533333,8.166667,
30950,EMDEN,53.333333,7.183333,
30960,LEER,53.233333,7.45,
30970,PAPENBURG,53.1,7.383333,
30990,DELFZIJL,53.333333,6.933333,
31010,HARLINGEN,53.183333,5.416667,
31020,DEN HELDER,52.966667,4.783333,
57990,CLAVERIA,18.616667,121.083333,
57995,PORT SAN VICENTE,18.516667,122.133333,
58000,APARRI,18.366667,121.633333,
58070,HONDAGUA,13.95,122.233333,
58100,JOSE PANGANIBAN,14.283333,122.683333,
58130,VIRAC,13.583333,124.25,
58150,TABACO,13.366667,123.733333,
58170,LEGAZPI PORT,13.15,123.75,
57710,CAM PHA,21.033333,107.366667,
57100,TULAGHI,-9.1,160.15,
57120,HONIARA,-9.416667,159.95,
57200,LUGANVILLE,-15.516667,167.166667,
57230,PORT VILA,-17.733333,168.316667,
57245,FORARI BAY,-17.683333,168.55,
57275,BAIE DE KOUAOUA,-21.383333,165.816667,
57410,KUANTAN NEW PORT,3.966667,103.433333,
57415,KIRTEH OIL TERMINAL,4.566667,103.466667,
57420,KUALA TRENGGANU,5.35,103.133333,
57425,TAPIS MARINE TERMINAL A,5.516667,105.016667,
57450,BANGKOK,13.75,100.5,
57460,SI RACHA TERMINAL,13.116667,100.883333,
57470,KO SI CHANG TERMINAL,13.166667,100.816667,
57485,KAMPONG SAOM,10.633333,103.5,
57490,PHSAR REAM,10.5,103.6,
57520,DUONG DONG,10.216667,103.966667,
57580,THANH HO CHI MINH,10.766667,106.716667,
45025,TARABULUS,34.45,35.833333,
45040,SAYDA,33.5,35.35,
45100,ASHDOD,31.816667,34.65,
45220,MERSA TOBRUQ,32.083333,23.983333,
45240,DARNAH,32.766667,22.65,
45280,BANGHAZI,32.116667,20.05,
45290,EZ ZUEITINA,30.85,20.05,
45295,AL BURAYQAH,30.416667,19.6,
45296,RAS   LANUF,30.516667,18.566667,
45297,AS SIDR,30.633333,18.366667,
45320,MISRATAH,32.366667,15.216667,
48730,PIPAVAV BANDAR,20.916667,71.516667,
58395,SUBIC BAY,14.8,120.266667,
57857,YANTIAN,22.583333,114.266667,
62600,PETROPAVLOVSK,53.05,158.65,
62630,NIKOL SKOYE,55.2,165.983333,
62640,PROVIDENIYA,64.416667,-173.233333,
62670,TIKSI,71.633333,128.866667,
62680,PEVEK,69.716667,170.3,
62695,PORT DIKSON,73.5,80.516667,
62720,DUDINKA,69.4,86.166667,
62730,IGARKA,67.483333,86.6,
62775,MEZEN,65.833333,44.183333,
62800,ARKHANGELS'K,64.533333,40.533333,
50510,SIBOLGA,1.733333,98.766667,
50600,ULEELHEUE,5.566667,95.283333,
50610,SABANG,5.883333,95.316667,
50650,LHOKSEUMAWE,5.25,97.116667,
50700,PANGKALANSUSU,4.116667,98.216667,
49980,MUAR,2.05,102.566667,
50785,DUMAI,1.683333,101.45,
49290,TRINCOMALEE HARBOR,8.55,81.216667,
49300,KANKESANTURAI,9.816667,80.05,
49320,TUTICORIN,8.8,78.166667,
49350,NAGAPPATTINAM,10.766667,79.85,
49410,CUDDALORE,11.716667,79.766667,
49430,PONDICHERRY,11.933333,79.833333,
49450,CHENNAI (MADRAS),13.1,80.3,
49460,MACHILIPATNAM,16.15,81.166667,
49470,KAKINADA BAY,17.0,82.316667,
49480,VISHAKHAPATNAM,17.683333,83.3,
49535,PARADIP,20.266667,86.683333,
15200,CALETA LOBITOS,-4.45,-81.283333,
15210,PUERTO CABO BLANCO,-4.25,-81.233333,
15250,PUERTO BOLIVAR,-3.266667,-80.0,
15275,PUERTO MARITIMO DE GUAYAQUIL,-2.283333,-79.9,
15290,LA LIBERTAD,-2.216667,-80.916667,
15310,MANTA,-0.95,-80.716667,
15330,ESMERALDAS,1.0,-79.65,
15360,TUMACO,1.816667,-78.75,
15370,BUENAVENTURA,3.883333,-77.066667,
15445,PEDREGAL,8.35,-82.433333,
15460,PUERTO ARMUELLES,8.266667,-82.85,
12490,BELEM,-1.45,-48.5,
12500,CAMETA,-2.25,-49.5,
12510,SANTAREM,-2.416667,-54.716667,
12540,ITACOATIARA,-3.15,-58.45,
12560,MANAUS,-3.133333,-60.016667,
12600,TUTOIA,-2.783333,-42.283333,
12630,CAMOCIM,-2.9,-40.833333,
12710,CABEDELO,-6.966667,-34.833333,
12730,RECIFE,-8.05,-34.866667,
12750,PORTO DE MACEIO,-9.666667,-35.733333,
12772,ARATU,-12.783333,-38.5,
12775,MADRE DE DEUS,-12.75,-38.616667,
12810,PORT OF ILHEUS,-14.783333,-39.016667,
12890,MACAE,-22.366667,-41.766667,
12910,PORTO DO FORNO,-22.966667,-42.016667,
12940,ANGRA DOS REIS,-23.016667,-44.316667,
12960,SAO SEBASTIAO,-23.8,-45.4,
12970,SANTOS,-23.95,-46.3,
12420,MOENGO,5.633333,-54.416667,
45330,MINA TARABULUS (TRIPOLI),32.9,13.183333,
45335,AZ ZAWIYA,32.8,12.716667,
45340,MARSA SABRATAH,32.816667,12.5,
45370,HOUMT SOUK,33.883333,10.85,
45375,GABES,33.9,10.116667,
45380,SKHIRA,34.283333,10.1,
44820,ANTALYA,36.833333,30.616667,
44825,ALANYA,36.533333,32.0,
44850,TASUCU,36.316667,33.883333,
44340,POTI,42.15,41.583333,
44350,BATUMI,41.65,41.65,
44370,HOPA,41.416667,41.4,
44380,RIZE,41.066667,40.516667,
44390,TRABZON,41.016667,39.766667,
44410,GIRESUN,40.933333,38.4,
44420,ORDU,41.0,37.883333,
44450,SAMSUN,41.3,36.35,
44460,SINOP,42.05,35.166667,
44480,INEBOLU,41.983333,33.766667,
44490,ZONGULDAK,41.466667,31.816667,
44500,EREGLI,41.3,31.45,
44540,HAYDARPASA,41.0,29.016667,
44605,KABA BURNU,40.766667,29.533333,
44610,DERINCE BURNU,40.75,29.816667,
44620,IZMIT,40.766667,29.916667,
44625,GOLCUK BURNU,40.733333,29.816667,
44640,MUDANYA,40.383333,28.883333,
44650,BANDIRMA,40.35,27.966667,
44660,ERDEK,40.383333,27.8,
44670,KARABIGA,40.4,27.316667,
44690,CANAKKALE,40.15,26.4,
44730,AYVALIK,39.316667,26.7,
44750,IZMIR,38.433333,27.133333,
57610,VINH CAM RANH,11.883333,109.166667,
57620,NHA TRANG,12.25,109.233333,
57640,QUI NHON,13.766667,109.233333,
57650,DA NANG,16.1,108.216667,
57680,HAI PHONG,20.916667,106.683333,
57700,HON GAI,20.95,107.066667,
57070,YANDINA,-9.083333,159.216667,
56323,TERN ISLAND,23.866667,-166.283333,
56325,JOHNSTON ATOLL,16.75,-169.516667,
56328,MIDWAY ISLAND,28.183333,-177.366667,
48216,BALHAF,13.966667,48.183333,
49555,HALDIA PORT,22.016667,88.083333,
49560,CALCUTTA,22.55,88.333333,
49580,MONGLA,22.466667,89.6,
49590,CHITTAGONG,22.316667,91.816667,
49620,SITTWE,20.133333,92.9,
49640,BASSEIN,16.783333,94.733333,
49650,RANGOON,16.766667,96.166667,
49660,MOULMEIN HARBOR,16.483333,97.616667,
49690,MERGUI,12.433333,98.6,
49720,PORT BLAIR,11.683333,92.75,
49770,PHUKET,7.833333,98.4,
49780,KRABI,8.066667,98.916667,
49790,KANTANG HARBOR,7.4,99.516667,
49930,PORT KLANG,3.0,101.4,
49960,PORT DICKSON,2.533333,101.783333,
37170,AMBES,45.016667,-0.533333,
35415,TEIGNMOUTH HARBOUR,50.55,-3.5,
35440,BRIDPORT HARBOUR,50.716667,-2.766667,
35480,POOLE HARBOUR,50.683333,-1.95,
35580,SOUTHAMPTON,50.9,-1.4,
35630,SHOREHAM HARBOUR,50.816667,-0.25,
35730,DUNKERQUE PORT EST,51.05,2.383333,
47987,EAST ZEIT TERMINAL,27.85,33.6,
47988,SHARM EL SHEIKH,27.85,34.283333,
47982,EL TUR HARBOR,28.233333,33.616667,
47960,NUWEIBA EL MUZEIMA,28.966667,34.65,
48104,SHARMAH,27.933333,35.25,
48106,DUBA,27.566667,35.533333,
48108,DUBA BULK PLANT TANKER TERMINAL,27.316667,35.9,
48030,NORTH AIN SUKHNA PORT,29.65,32.366667,
59475,GINGOOG,8.833333,125.1,
25760,IGGESUND,61.65,17.083333,
58795,ISABEL,10.916667,124.433333,
25780,HUDIKSVALL,61.733333,17.116667,
59343,MASAO,9.0,125.416667,
25800,STOCKA,61.9,17.35,
58695,TANAUAN,11.1,125.016667,
60981,SHAKHTERSK,49.166667,142.066667,
44162,KAVKAZ OIL TERMINAL,45.333333,36.65,
60582,ZARUBINO,42.633333,131.083333,
60870,VITAZ MARINE TERMINAL,52.7,143.55,
25900,STOCKVIK,62.333333,17.383333,
25910,SUNDSVALL,62.383333,17.35,
26140,VIVSTAVARV,62.483333,17.35,
26180,SORAKER,62.5,17.5,
26240,HARNOSAND,62.633333,17.933333,
26280,ULVVIK,62.666667,17.866667,
26290,UTANSJO,62.766667,17.933333,
26310,GUSTAVSVIK,62.833333,17.883333,
26340,LUNDE,62.883333,17.883333,
26380,KRAMFORS,62.933333,17.8,
25570,KARSKAR,60.683333,17.266667,
26420,VAJA,62.983333,17.716667,
26430,BOLLSTABRUK,63.0,17.7,
24790,DEGERHAMN,56.35,16.416667,
24810,RONEHAMN,57.116667,18.5,
24840,SLITE,57.7,18.816667,
24900,FAROSUND,57.916667,19.05,
24940,STORUGNS,57.833333,18.8,
54940,PORT DALRYMPLE,-41.133333,146.833333,
24950,VISBY,57.633333,18.283333,
24960,KLINTEHAMN,57.383333,18.2,
25050,VERKEBACK,57.733333,16.533333,
25060,VASTERVIK,57.766667,16.65,
25190,NORRKOPING,58.583333,16.2,
25280,OXELOSUND,58.666667,17.116667,
25290,NYKOPING,58.75,17.016667,
25320,SODERTALJE,59.183333,17.65,
25330,NYNASHAMN,58.9,17.966667,
56330,WAKE ISLAND,19.283333,166.616667,
56400,MAJURO ATOLL,7.083333,171.383333,
56450,TARAWA ATOLL,1.333333,172.933333,
56500,NAURU,-0.533333,166.916667,
56520,SAIPAN,15.2,145.683333,
56530,TINIAN,14.966667,145.616667,
56540,ROTA,14.133333,145.15,
56550,APRA HARBOR,13.45,144.616667,
56570,LELE HARBOR,5.333333,163.033333,
56630,COLONIA,9.516667,138.133333,
56660,MALAKAL HARBOR,7.333333,134.45,
56710,LONGAN ISLAND,-1.216667,144.3,
56730,LORENGAU,-2.016667,147.266667,
56738,WEWAK HARBOR,-3.566667,143.633333,
56740,HAMBURG HARBOR,-1.633333,149.966667,
56820,KOKOPO,-4.333333,152.266667,
56835,KIMBE,-5.133333,150.533333,
56855,KIETA,-6.216667,155.633333,
56970,GIZO HARBOR,-8.1,156.85,
56320,NONOPAPA,21.866667,-160.233333,
55670,APIA,-13.816667,-171.766667,
55680,PAGO PAGO HARBOR,-14.283333,-170.666667,
55695,ALOFI,-19.033333,-169.933333,
55740,AVATIU,-21.2,-159.783333,
44752,NEMRUT LIMANI BAY,38.766667,26.916667,
44770,KUSADASI,37.866667,27.25,
44805,MARMARIS,36.85,28.283333,
44810,FETHIYE,36.633333,29.1,
44320,SOKHUMI,42.983333,40.983333,
43745,CHORNOMORS KE,45.516667,32.7,
43750,YEVPATORIYA,45.2,33.383333,
43760,SEVASTOPOL,44.616667,33.533333,
43780,BALAKLAVA,44.5,33.6,
43790,YALTA,44.483333,34.166667,
43810,ALUSHTA,44.683333,34.416667,
43835,SUDAK,44.85,34.983333,
43850,FEODOSIYA,45.016667,35.433333,
35760,BOULOGNE-SUR-MER,50.733333,1.6,
35830,FECAMP,49.766667,0.366667,
35860,HONFLEUR,49.416667,0.216667,
35950,RADE DE CHERBOURG,49.65,-1.633333,
35390,DARTMOUTH HARBOUR,50.35,-3.616667,
34850,FISHGUARD,52.016667,-4.983333,
34880,MILFORD HAVEN,51.716667,-5.033333,
34950,SWANSEA,51.616667,-3.95,
62810,SEVERODVINSK,64.566667,39.783333,
62840,RABOCHEOSTROVSK,64.983333,34.783333,
62890,KANDALAKSHA,67.133333,32.416667,
62900,BOLSHAYA PIRYU GUBA,66.666667,34.366667,
62910,OSTROVNOY GREMIKHA,68.05,39.516667,
62950,MURMANSK,68.983333,33.05,
62970,MYS ABRAM,68.983333,33.033333,
63070,ELLEFSEN HARBOR,-60.733333,-45.033333,
63080,SCOTIA BAY,-60.75,-44.716667,
63090,ADMIRALTY BAY,-62.083333,-58.416667,
63095,PORT FOSTER,-62.95,-60.633333,
63100,PORT LOCKROY,-64.816667,-63.5,
63110,MELCHIOR HARBOR,-64.316667,-63.0,
63120,ANDERSEN HARBOR,-64.316667,-62.933333,
62550,BUKHTA NAGAYEVA (MAGADAN),59.566667,150.716667,
62140,MOJI KO,33.95,130.966667,
48025,RAS BADRAN OIL TERMINAL,28.95,33.166667,
48035,SOKHNA PORT GAS TANKER TERMINAL,29.683333,32.366667,
48475,BANDAR-E PARS TERMINAL,27.533333,52.533333,
48464,BARKAN OIL-LOADING TERMINAL,29.733333,50.166667,
48404,KHAWR AL ZUBAIR,30.183333,47.9,
48406,KHAWR AL ZUBAIR LNG TERMINAL,30.133333,47.916667,
48342,JU AYMAH LPG TERMINAL,26.866667,50.05,
48341,RAS AL GHAR,26.9,49.866667,
48280,HULAYLAH OIL TERMINAL,25.983333,55.933333,
48214,RUDUM TERMINAL,13.983333,47.916667,
54565,CAPE CUVIER,-24.216667,113.383333,
54210,KLEIN POINT,-34.966667,137.766667,
54555,USELESS LOOP,-26.083333,113.4,
56272,BARBER'S POINT,21.316667,-158.116667,
56975,PORT NORO,-8.216667,157.183333,
57657,THANH HOA,10.816667,106.766667,
57660,NGHE TINH,18.766667,105.766667,
40745,PORTO DI CHIOGGIA,45.233333,12.3,
57575,CAT LAI,10.75,106.783333,
57953,MAILIAO,23.783333,120.166667,
57862,CHAOZHOU,23.616667,117.083333,
59974,CHANGSHU,31.766667,120.95,
60233,DANDONG,39.816667,124.15,
57859,HUIZHOU,22.716667,114.516667,
57864,DONGSHAN,23.75,117.516667,
60125,LANSHAN,30.1,119.366667,
60165,PENGLAI,37.816667,120.833333,
57874,QUANZHOU,24.883333,118.6,
60133,RIZHAO,35.383333,119.566667,
59976,TAICANG,31.65,121.2,
60193,TANGSHAN (JINGTANG),39.2,119.016667,
57876,XIUYU,25.233333,118.983333,
57872,ZHANGZHOU,24.683333,118.15,
31040,IJMUIDEN,52.466667,4.583333,
31050,ZAANDAM,52.433333,4.833333,
31060,AMSTERDAM,52.366667,4.9,
31070,SCHEVENINGEN,52.1,4.266667,
31080,HOEK VAN HOLLAND,51.95,4.133333,
31085,EUROPOORT,51.95,4.116667,
31100,MAASSLUIS,51.916667,4.25,
31120,VLAARDINGEN,51.9,4.35,
46640,WALVIS BAY,-22.95,14.5,
46830,EAST LONDON,-33.033333,27.916667,
46850,DURBAN,-29.866667,31.066667,
46880,INHAMBANE,-23.916667,35.4,
46890,BEIRA,-19.833333,34.833333,
46920,PORTO BELO,-17.7,37.183333,
46925,PEBANE,-17.266667,38.15,
46940,PEMBA,-12.966667,40.5,
46950,IBO,-12.333333,40.616667,
47000,KILWA KIVINJE,-8.733333,39.416667,
47005,MJIMWEMA TERMINAL,-6.816667,39.366667,
47030,TANGA,-5.083333,39.116667,
47050,ZANZIBAR,-6.166667,39.183333,
47130,KISMAAYO,-0.366667,42.55,
47140,BARAAWE,1.1,44.05,
47220,VICTORIA,-4.616667,55.45,
47300,MORONI,-11.7,43.25,
47340,DZAOUDZI,-12.783333,45.25,
47360,ANDOANY,-13.4,48.3,
47430,MORONDAVA,-20.283333,44.3,
27780,RAUMA,61.133333,21.5,
27790,UUSIKAUPUNKI,60.8,21.4,
27805,NAANTALI,60.466667,22.016667,
27820,TURKU,60.45,22.233333,
51502,UDANG OILFIELD,4.033333,106.483333,
27870,SIGNILSKAR,60.2,19.333333,
51504,WIDURI MARINE TERMINAL,-4.666667,106.65,
27920,MARIEHAMN,60.1,19.916667,
53142,KUMUL,-8.1,144.566667,
43900,KERCH,45.35,36.483333,
43940,HENICHESK,46.166667,34.816667,
43950,KYRYLIVKA,46.35,35.366667,
44000,BERDYANSK,46.75,36.783333,
44010,MARIUPOL,47.083333,37.566667,
44060,TAGANROG,47.2,38.95,
44070,ROSTOV-NA-DONU,47.166667,39.716667,
44080,AZOV,47.1,39.433333,
44090,YEYSK,46.733333,38.266667,
44140,TEMRYUK,45.35,37.35,
44180,ANAPA,44.883333,37.316667,
44200,NOVOROSSIYSK,44.716667,37.783333,
44230,TUAPSE,44.1,39.066667,
44240,SOCHI,43.583333,39.733333,
44270,ADLER,43.433333,39.933333,
43710,SKADOVS'K,46.1,32.916667,
43720,KHORLY,46.083333,33.283333,
43030,MILOS,36.716667,24.45,
43100,SOUDHA,35.483333,24.183333,
43130,IRAKLION,35.35,25.15,
43150,SITIA,35.216667,26.133333,
43165,KALI LIMENES,34.933333,24.833333,
43210,RODHOS,36.45,28.233333,
43250,LIMIN KOS,36.9,27.283333,
43260,KALIMNOS,36.95,26.983333,
43280,LAKKI,37.133333,26.85,
43370,ECEABAT,40.183333,26.366667,
43380,GELIBOLU,40.4,26.666667,
43390,TEKIRDAG,40.983333,27.516667,
43420,ISTANBUL,41.016667,28.966667,
43430,DEFTERDAR BURNU,41.05,29.033333,
43435,ISTINYE,41.116667,29.05,
43500,BURGAS,42.483333,27.483333,
55770,VAITAPE,-16.5,-151.75,
55800,UTUROA,-16.733333,-151.45,
55840,PAPEETE,-17.533333,-149.583333,
55960,PORT RIKITEA,-23.116667,-134.966667,
56010,ATUONA,-9.816667,-139.033333,
56015,BAIE TAIOHAE,-8.933333,-140.083333,
56025,CANTON ISLAND,-2.833333,-171.716667,
56039,ENGLISH HARBOR,3.85,-159.366667,
56070,HONOKAA,20.1,-155.466667,
56090,HILO,19.733333,-155.066667,
62145,KANDA,33.783333,131.016667,
62160,OITA KO,33.25,131.666667,
62165,SAGANOSEKI KO,33.25,131.866667,
62170,TSUKUMI KO,33.083333,131.866667,
62175,SAIKI KO,32.966667,131.933333,
62190,HOSOSHIMA KO,32.433333,131.666667,
62220,KAGOSHIMA KO,31.583333,130.566667,
62224,SHIBUSHI WAN,31.466667,131.1,
62225,KIIRE,31.383333,130.55,
62250,MINAMATA KO,32.2,130.383333,
62255,YATSUSHIRO KO,32.5,130.533333,
62280,MISUMI KO,32.6,130.466667,
62290,MIIKE KO,33.0,130.416667,
62360,NAGASAKI,32.716667,129.85,
62380,SASEBO,33.166667,129.716667,
62400,IMARI,33.283333,129.883333,
49970,MELAKA,2.2,102.25,
49240,COLOMBO,6.95,79.85,
49250,GALLE HARBOR,6.016667,80.216667,
48450,BANDAR-E MAHSHAHR,30.466667,49.183333,
48460,BANDAR KHOMEYNI,30.433333,49.083333,
48465,KHARG ISLAND OIL TERMINAL,29.233333,50.333333,
48468,SIRUS OIL TERMINAL,29.016667,49.483333,
56240,PUKOO,21.066667,-156.8,
48470,BUSHEHR,28.983333,50.833333,
48480,JAZIREH-YE LAVAN OIL TERMINAL,26.783333,53.333333,
48530,JAZIREH-YE HORMOZ,27.1,56.45,
48535,JAZIREH-YE SIRRI,25.9,54.55,
48550,CHAH BAHAR,25.266667,60.616667,
48600,KARACHI,24.783333,66.983333,
48605,MUHAMAMAD BIN QASIM,24.766667,67.35,
48620,MANDVI,22.833333,69.35,
48670,OKHA,22.466667,69.083333,
31130,SCHIEDAM,51.9,4.4,
30460,THYBORON,56.7,8.216667,
29660,SAKSKOBING,54.8,11.633333,
29670,BANDHOLM,54.833333,11.5,
29700,NAKSKOV,54.833333,11.133333,
29710,RODBY HAVN,54.65,11.35,
29720,NYSTED,54.666667,11.733333,
29760,RUDKOBING,54.95,10.716667,
29790,MARSTAL,54.916667,10.333333,
29800,AEROSKOBING,54.883333,10.416667,
29830,SVENDBORG,55.066667,10.616667,
29860,NYBORG,55.316667,10.8,
29880,ODENSE,55.416667,10.383333,
29910,MIDDELFART,55.5,9.733333,
29930,ASSENS,55.266667,9.883333,
29940,FABORG,55.1,10.25,
30060,SONDERBORG,54.916667,9.783333,
30095,AUGUSTENBORG,54.95,9.866667,
30100,ABENRA,55.05,9.433333,
30105,ENSTED,55.016667,9.433333,
30120,HADERSLEV,55.25,9.5,
30160,KOLDING,55.483333,9.5,
30170,FREDERICIA,55.566667,9.766667,
30190,VEJLE,55.716667,9.55,
30230,HORSENS,55.866667,9.85,
30260,ARHUS,56.15,10.216667,
30285,STUDSTRUP,56.25,10.35,
30290,GRENAA HAVN,56.416667,10.933333,
30330,RANDERS,56.466667,10.05,
30340,HADSUND,56.716667,10.116667,
30350,MARIAGER,56.65,9.983333,
30360,HOBRO,56.633333,9.8,
56250,KAMALO,21.05,-156.883333,
30380,HALS,56.983333,10.316667,
30400,ALBORG,57.05,9.933333,
30430,FREDERIKSHAVN,57.433333,10.55,
30440,SKAGEN HAVN,57.716667,10.6,
15480,GOLFITO,8.633333,-83.166667,
15490,PUERTO QUEPOS,9.433333,-84.166667,
15500,PUERTO CALDERA,9.916667,-84.716667,
15510,PUNTARENAS,9.983333,-84.833333,
15545,PUERTO SANDINO,12.183333,-86.766667,
20175,SKOOT COVE,52.716667,174.066667,
47460,TOLIARA,-23.366667,43.666667,
47510,MANANJARY,-21.25,48.333333,
47540,TOAMASINA,-18.166667,49.416667,
47630,ANTSIRANANA,-12.266667,49.283333,
56100,HONUAPO,19.083333,-155.55,
56110,MILOLII,19.183333,-155.9,
56120,KAUHAKO BAY,19.383333,-155.9,
56130,NAPOOPOO,19.483333,-155.933333,
56140,KAILUA,19.633333,-156.0,
56150,KIHOLO,19.866667,-155.95,
56160,KAWAIHAE,20.033333,-155.833333,
56170,MAHUKONA,20.183333,-155.9,
56180,KAHULUI,20.9,-156.466667,
56190,HANA,20.75,-155.983333,
56200,LAHAINA,20.866667,-156.666667,
56230,KAUMALAPAU HARBOR,20.783333,-157.0,
56260,KAUNAKAKAI,21.083333,-157.033333,
56280,HONOLULU,21.3,-157.866667,
56290,PORT ALLEN,21.9,-159.583333,
56300,NAWILIWILI BAY,21.95,-159.35,
56310,AHUKINI LANDING,22.0,-159.333333,
55650,MATA-UTU,-13.283333,-176.133333,
54920,DEVONPORT,-41.183333,146.366667,
54943,BEAUTY POINT,-41.15,146.816667,
54970,LAUNCESTON,-41.45,147.116667,
55000,WHANGAROA,-35.05,173.766667,
55030,OPUA,-35.316667,174.116667,
55050,WHANGAREI,-35.8,174.433333,
55060,AUCKLAND,-36.85,174.766667,
55080,TAURANGA,-37.633333,176.166667,
55110,GISBORNE,-38.666667,178.033333,
55130,NAPIER,-39.483333,176.916667,
55150,WELLINGTON,-41.283333,174.783333,
55180,WANGANUI,-39.95,175.033333,
55210,NEW PLYMOUTH,-39.066667,174.033333,
43510,VARNA,43.183333,27.966667,
43550,MANGALIA,43.816667,28.583333,
43560,CONSTANTA,44.166667,28.65,
43570,SULINA,45.166667,29.666667,
43590,BRAILA,45.25,27.983333,
43600,GALATI,45.416667,28.083333,
43625,IZMAYIL,45.333333,28.85,
43645,ILLICHIVSK,46.3,30.65,
43650,ODESA,46.483333,30.733333,
43655,YUZHNYY,46.6,31.016667,
43670,MYKOLAYIV,46.95,31.983333,
43680,KHERSON,46.616667,32.6,
48690,VERAVAL,20.9,70.366667,
48760,BHAVNAGAR,21.766667,72.233333,
48840,MUMBAI (BOMBAY),18.966667,72.866667,
48845,JAWAHARLAL NEHRU PORT (NHAVA SHIVA),18.95,72.95,
48970,MARMAGAO,15.433333,73.8,
48990,KARWAR,14.816667,74.116667,
49040,AZHIKAL (AZHIKKAL),11.916667,75.3,
49100,CALICUT (KOZHIKODE),11.25,75.766667,
49110,BEYPORE,11.166667,75.8,
49130,KOCHI (COCHIN),9.966667,76.233333,
49160,QUILON (KOLLAM),8.883333,76.583333,
49180,KOLACHEL,8.166667,77.25,
34970,NEATH,51.633333,-3.833333,
34980,PORT TALBOT,51.583333,-3.816667,
34990,BARRY,51.4,-3.266667,
35010,CARDIFF,51.45,-3.166667,
35015,NEWPORT,51.55,-2.983333,
35040,SHARPNESS,51.716667,-2.483333,
35060,AVONMOUTH,51.5,-2.716667,
35070,BRISTOL,51.466667,-2.633333,
35100,BRIDGWATER,51.133333,-3.0,
35110,WATCHET HARBOR,51.183333,-3.333333,
35150,BIDEFORD,51.033333,-4.2,
35170,PADSTOW,50.55,-4.933333,
35200,HAYLE,50.183333,-5.416667,
35240,NEWLYN,50.1,-5.55,
35290,FALMOUTH HARBOUR,50.15,-5.066667,
15550,CORINTO,12.483333,-87.166667,
15570,PUERTO DE HENCAN,13.4,-87.45,
15600,LA UNION,13.333333,-87.833333,
15170,PAITA,-5.083333,-81.116667,
15190,TALARA,-4.583333,-81.283333,
14415,BAHIA SAN VICENTE,-36.733333,-73.166667,
14420,TALCAHUANO,-36.7,-73.1,
14425,LIRQUEN,-36.716667,-72.983333,
14440,PENCO,-36.716667,-73.0,
14470,PUERTO SAN ANTONIO,-33.583333,-71.616667,
14500,BAHIA DE VALPARAISO,-33.033333,-71.616667,
14510,BAHIA QUINTERO (VENTANAS),-32.766667,-71.533333,
14560,BAHIA HERRADURA GUAYACAN,-29.966667,-71.366667,
14570,COQUIMBO,-29.95,-71.333333,
14610,HUASCO,-28.466667,-71.25,
14630,PUERTO CALDERA,-27.05,-70.833333,
14635,PUERTO CALDERILLA,-27.083333,-70.866667,
14640,PUERTO CHANARAL,-26.35,-70.65,
14650,TALTAL,-25.4,-70.483333,
14660,ANTOFAGASTA,-23.65,-70.416667,
14670,MEJILLONES,-23.1,-70.466667,
14720,TOCOPILLA,-22.083333,-70.233333,
14760,IQUIQUE,-20.2,-70.166667,
14800,RADA DE ARICA,-18.466667,-70.333333,
14840,PUERTO ILO,-17.633333,-71.366667,
14860,BAHIA DE MATARANI,-17.0,-72.116667,
14895,BAHIA SAN NICOLAS,-15.25,-75.233333,
42820,KHIOS,38.366667,26.133333,
12370,GEORGETOWN,6.833333,-58.166667,
12380,LINDEN,6.0,-58.3,
12390,NEW AMSTERDAM,6.25,-57.516667,
12405,NIEUW NICKERIE,5.95,-57.0,
12410,PARAMARIBO,5.833333,-55.166667,
12415,PARANAM,5.616667,-55.1,
42340,ORMOS ALIVERIOU,38.383333,24.05,
42400,PORTHMOS EVRIPOU,38.466667,23.583333,
42415,LARIMNA,38.566667,23.283333,
42440,STILIS,38.916667,22.616667,
42460,TSINGELI,39.166667,22.85,
42470,VOLOS,39.366667,22.95,
42490,MILIANA,39.166667,23.216667,
42530,THESSALONIKI,40.633333,22.933333,
42550,YERAKINI,40.266667,23.466667,
42570,STRATONI,40.516667,23.833333,
42620,LAGOS,41.0,25.133333,
42630,ALEXANDROUPOLI,40.833333,25.883333,
42760,MITILINI,39.1,26.566667,
42780,PLOMARION,38.983333,26.366667,
42790,VRAKHONISIS KALLONIS,39.083333,26.083333,
42840,NEON KARLOVAS,37.8,26.683333,
42850,SAMOS,37.75,26.966667,
42860,PITHAGORION,37.683333,26.95,
42880,GAVRIO,37.883333,24.733333,
42890,ANDROS,37.833333,24.95,
42905,MIKONOS,37.45,25.333333,
42920,LIMIN SIROU,37.433333,24.95,
42980,NISOS NAXOS,37.1,25.366667,
42310,DHIAVLOS STENO,38.45,23.6,
41660,SHENGJIN,41.816667,19.6,
41670,DURRES,41.316667,19.45,
41690,VLORES,40.466667,19.5,
41720,KERKIRA,39.616667,19.933333,
41730,PREVEZA,38.95,20.75,
41790,ARGOSTOLION,38.183333,20.516667,
41800,MESOLONGION,38.366667,21.416667,
41820,ITEA,38.433333,22.416667,
55230,MANUKAU HARBOR,-36.933333,174.783333,
55270,COLLINGWOOD,-40.683333,172.666667,
55290,NELSON,-41.266667,173.266667,
55300,PICTON,-41.283333,174.016667,
55320,PORT LYTTELTON,-43.6,172.716667,
55330,AKAROA,-43.8,172.966667,
55350,TIMARU,-44.4,171.25,
55370,OTAGO HARBOR,-45.816667,170.633333,
55400,BLUFF HARBOR,-46.6,168.333333,
55440,GREYMOUTH,-42.433333,171.216667,
55450,WESTPORT,-41.75,171.6,
55500,KINGSTON,-29.066667,167.95,
35320,CHARLESTOWN,50.333333,-4.75,
35330,PAR,50.35,-4.7,
34770,HOLYHEAD,53.316667,-4.633333,
34780,CAERNARVON,53.15,-4.266667,
33950,SLIGO,54.266667,-8.466667,
34020,WESTPORT,53.8,-9.533333,
34060,GALWAY,53.266667,-9.05,
34110,LIMERICK,52.633333,-8.616667,
34130,FOYNES,52.616667,-9.116667,
34150,TARBERT,52.583333,-9.366667,
34160,FENIT,52.266667,-9.866667,
34260,BANTRY,51.683333,-9.45,
34350,COBH,51.85,-8.3,
34360,CORK,51.85,-8.266667,
34400,WATERFORD,52.266667,-7.116667,
34420,ROSSLARE,52.25,-6.333333,
62420,KARATSU,33.483333,129.966667,
62430,HAKATA,33.6,130.4,
62440,IZUHARA,34.2,129.3,
62495,KIN WAN,26.416667,127.9,
62500,NAHA KO,26.216667,127.683333,
62510,HIRARA KO,24.8,125.283333,
62520,ISHIGAKI,24.333333,124.166667,
62540,OKHOTSK IY REYD,59.366667,143.2,
62120,WAKAMATSU KO,33.9,130.816667,
61720,HAGI KO,34.416667,131.4,
61730,HAMADA KO,34.9,132.083333,
61750,SAKAI KO,35.55,133.25,
61790,MIYAZU,35.533333,135.2,
61800,MAIZURU KO,35.516667,135.333333,
61822,KANAZAWA,36.616667,136.6,
61840,NANAO KO,37.05,136.983333,
26990,GUMBODAHAMN,64.233333,21.1,
59963,ZHAPU,30.583333,121.083333,
57816,SANYA,18.316667,109.45,
57817,YANGPU,19.733333,109.183333,
57818,CHIWAN,19.966667,110.033333,
57819,SHUI DONG,21.483333,111.083333,
57821,ZHUHAI,22.233333,113.583333,
57820,QINZHOU,21.733333,108.583333,
57822,HUANGPU,23.083333,113.416667,
59986,CHANGZHOU,31.966667,119.983333,
28140,HANKO,59.816667,22.95,
27250,TOREHAMN,65.9,22.65,
55275,TARAKOHE,-40.85,172.9,
26710,KOPMANHOLMEN,63.166667,18.583333,
51733,BAKAPIT,4.95,118.583333,
26730,ORNSKOLDSVIK,63.283333,18.716667,
26790,HUSUM,63.333333,19.15,
26800,RUNDVIK,63.533333,19.45,
26810,NORDMALING,63.566667,19.483333,
51570,BINTANGOR,2.166667,111.633333,
51736,MOSTYN,4.683333,118.25,
57411,KEMAMAN HARBOR,4.25,103.466667,
26890,UMEA HAMN,63.7,20.35,
51584,TG. MANI,2.15,111.35,
51587,TANJUNG PELEPAS,1.35,103.55,
57433,BONGKOT TERMINAL,8.05,102.333333,
57570,VUNG TAU,10.35,107.066667,
27080,SKELLEFTEHAMN,64.683333,21.233333,
27090,KAGEHAMN,64.833333,21.033333,
57435,PATTANI,6.95,101.3,
57434,TANTAWAN MARINE TERMINAL,10.083333,101.416667,
27130,BRANNFORS,65.016667,21.383333,
49792,BANG SAPHAN,11.183333,99.6,
49794,KHANOM,9.2,99.9,
57462,LAEM CHABANG,13.083333,100.883333,
27190,PITEA,65.316667,21.483333,
57440,ERAWAN TERMINAL,9.1,101.35,
57436,BENCHAMAS TERMINAL,10.516667,101.25,
27220,LULEA,65.583333,22.166667,
57458,SI RACHA,13.166667,100.916667,
57437,MAP TA PHUT,12.666667,101.166667,
25590,GAVLE,60.683333,17.166667,
13730,COLON,-32.216667,-58.133333,
13770,LA PLATA,-34.833333,-57.883333,
12455,DEGRAD DES CANNES,4.85,-52.266667,
12485,PORTO SANTANA,-0.05,-51.183333,
55530,LAUTOKA HARBOR,-17.6,177.45,
55540,SUVA HARBOR,-18.133333,178.416667,
55550,LEVUKA,-17.683333,178.833333,
55556,MALAI,-16.35,179.366667,
55560,SAVUSAVU BAY,-16.766667,179.333333,
55590,NUKU ALOFA,-21.133333,-175.2,
55600,PANGAI,-19.8,-174.35,
55610,NEIAFU,-18.65,-173.983333,
55617,FUNAFUTI ATOLL,-8.516667,179.133333,
54325,PORT BONYTHON,-33.016667,137.766667,
54350,PORT LINCOLN,-34.716667,135.85,
54410,THEVENARD,-32.166667,133.65,
54450,ESPERANCE,-33.866667,121.9,
54470,ALBANY,-35.033333,117.883333,
54500,BUNBURY,-33.316667,115.633333,
54520,FREMANTLE,-32.05,115.75,
54540,GERALDTON,-28.783333,114.6,
54575,POINT MURAT,-21.816667,114.183333,
54580,ONSLOW,-21.65,115.1,
54600,PORT WALCOTT,-20.65,117.183333,
54605,DAMPIER,-20.633333,116.716667,
54620,PORT HEDLAND,-20.316667,118.583333,
54630,BROOME,-17.966667,122.233333,
54660,WYNDHAM,-15.466667,128.1,
54670,DARWIN,-12.466667,130.85,
41840,AIGIO,38.25,22.083333,
41850,PATRAI,38.25,21.733333,
41880,KATAKOLON,37.65,21.316667,
41910,PILOS,36.9,21.666667,
41940,KALAMATA,37.016667,22.116667,
41950,YITHION,36.75,22.566667,
42050,NAVPLIO,37.566667,22.8,
42160,MEGARA OIL TERMINAL,37.966667,23.4,
42180,AYIOS NIKOLAOS,37.983333,23.533333,
42200,ELEVSIS,38.033333,23.55,
42205,PAKHI OIL TERMINAL,37.966667,23.383333,
42210,PERAMA,37.966667,23.566667,
61870,NIIGATA KO,37.916667,139.05,
61890,RYOTU KO,38.083333,138.566667,
61900,SAKATA KO,38.933333,139.816667,
61910,AKITA-FUNAKAWA KO,39.833333,140.0,
61935,HANNAN KO,34.466667,135.35,
61940,TAKAMATSU,34.35,134.05,
61960,KOMATSUSHIMA,34.016667,134.6,
61965,TACHIBANA,33.866667,134.666667,
61970,KOCHI KO,33.5,133.566667,
61980,SUSAKI KO,33.383333,133.3,
62010,UWAJIMA KO,33.216667,132.566667,
62020,YAWATAHAMA,33.45,132.416667,
62030,MATSUYAMA,33.85,132.7,
62060,KIKUMA KO,34.033333,132.833333,
62065,MUTUREZIMA KO,33.966667,130.866667,
62070,IMABARI KO,34.066667,133.016667,
62080,NIIHAMA,33.983333,133.283333,
62085,MISHIMA-KAWANOE KO,34.0,133.55,
49200,MALE,4.166667,73.5,
48430,ABADAN,30.333333,48.283333,
48230,MINA RAYSUT,16.933333,54.016667,
48250,MINA QABUS,23.633333,58.583333,
48255,MINA AL FAHL,23.633333,58.516667,
48262,FUJAYRAH HARBOR,25.166667,56.333333,
48263,KHAWR FAKKAN,25.35,56.383333,
48264,MINA SAQR,25.983333,56.05,
48265,FATEH OIL TERMINAL,25.583333,54.416667,
48268,MUBARRAZ OIL TERMINAL,24.433333,53.516667,
48274,AL HAMRIYAH LPG TERMINAL,25.466667,55.483333,
48275,DUBAYY,25.266667,55.3,
48276,MINA JABAL ALI,25.016667,55.05,
48277,JAZIRAT DAS,25.15,52.866667,
48278,ABU ZABY,24.5,54.333333,
48279,UMM AN NAR,24.45,54.483333,
48282,JABAL AZ ZANNAH/RUWAYS,24.2,52.7,
48287,UMM SAID,24.916667,51.566667,
48290,DOHA,25.283333,51.533333,
59991,NANTONG,32.0,120.8,
59990,ZHANGJIANGANG,31.966667,120.4,
60323,DAESAN HANG,37.016667,126.4,
60725,VOSTOCHNYY,42.75,133.083333,
61416,ATSUMI,34.666667,137.066667,
62535,SLAVYANKA,42.866667,131.383333,
61571,O0KIHAMA,34.75,134.566667,
61232,ISIKARI WAN,43.233333,141.366667,
61810,TSURUGA KO,35.65,136.066667,
61865,NAOETSU KO,37.183333,138.25,
49000,BELEKERI,14.7,74.266667,
48960,PANAJI,15.5,73.816667,
48615,VADINAR TERMINAL,22.516667,69.7,
62505,NAKAGUSUKU,26.266667,127.916667,
62340,AOKATA,32.983333,129.066667,
61805,FUKUI,36.066667,136.2,
61867,KASHIWAZAKI,37.366667,138.55,
61617,HABU KO,34.283333,133.183333,
62497,NISHIHARA,26.216667,127.8,
62079,ONODA,34.0,131.183333,
61967,SHINGU,33.666667,135.983333,
62077,TAKUMA,34.216667,133.683333,
61175,TOKACHI,42.25,143.3,
62078,TONDA,34.033333,131.75,
61802,UCHIURA,35.516667,135.5,
63130,MCMURDO STATION,-77.85,166.65,
15427,CHARCO AZUL,8.216667,-82.866667,
30450,HIRTSHALS,57.6,9.966667,
30455,HANSTHOLM,57.133333,8.6,
29630,NYKOBING (FALSTER),54.766667,11.866667,
28860,ROSTOCK,54.1,12.133333,
28870,WISMAR,53.9,11.466667,
28880,LUBECK-TRAVEMUNDE,53.966667,10.883333,
28890,LUBECK,53.883333,10.7,
28900,NEUSTADT,54.1,10.816667,
28920,HEILIGENHAFEN,54.366667,10.983333,
28930,KIEL,54.316667,10.133333,
61190,HAKODATE KO,41.783333,140.716667,
61205,ESASI KO,41.866667,140.116667,
61230,OTARU KO,43.2,141.016667,
61250,RUMOI KO,43.95,141.633333,
61260,WAKKANAI,43.416667,141.683333,
61270,AOMORI KO,40.833333,140.75,
61280,HACHINOHE KO,40.533333,141.55,
61290,MIYAKO,39.633333,141.983333,
61310,KAMAISHI KO,39.266667,141.9,
61320,OFUNATO,39.05,141.733333,
61325,KESENNUMA KO,38.866667,141.6,
61330,ONAGAWA,38.45,141.45,
61340,ISHINOMAKI KO,38.4,141.316667,
61350,SENDAI-SHIOGAMA,38.316667,141.033333,
61355,ONAHAMA KO,36.933333,140.9,
61356,HITACHI,36.5,140.633333,
61357,KASHIMA KO,35.933333,140.7,
61360,CHOSHI,35.733333,140.85,
61370,TATEYAMA KO,35.0,139.8,
14140,BAHIA HARRIS,-53.85,-70.45,
61372,KISARAZU KO,35.366667,139.883333,
61375,CHIBA KO,35.583333,140.066667,
61378,KATSUNAN KO,35.666667,139.983333,
61385,KAWASAKI KO,35.5,139.766667,
61390,YOKOHAMA KO,35.45,139.583333,
61020,MYS ROGATYY OKTYABRSKIY,50.733333,142.1,
60410,POHANG,36.05,129.383333,
60430,MUKHO,37.566667,129.116667,
60435,SOKCH'O HANG,38.2,128.6,
46855,RICHARDS BAY,-28.816667,32.083333,
46870,MAPUTO,-25.966667,32.583333,
46900,CHINDE,-18.566667,36.5,
46910,QUELIMANE,-17.883333,36.883333,
46930,MOCAMBIQUE,-15.033333,40.733333,
46935,NACALA,-14.533333,40.666667,
42230,PIRAIEVS,37.933333,23.65,
42300,ORMOS MIKRO VATHI,38.433333,23.6,
41550,DUBROVNIK,42.666667,18.083333,
40580,PORTO DI BARLETTA,41.316667,16.283333,
40590,MANFREDONIA,41.616667,15.916667,
40615,VASTO,42.116667,14.716667,
40620,ORTONA,42.35,14.416667,
40630,PESCARA,42.466667,14.216667,
40660,ANCONA,43.616667,13.5,
40720,PORTO DI CORSINI,44.5,12.283333,
40750,PORTO DI MALAMOCCO,45.333333,12.316667,
40760,PORTO DI LIDO-VENEZIA,45.416667,12.433333,
40790,MONFALCONE,45.783333,13.55,
40820,TRIESTE,45.65,13.766667,
40830,MUGGIA,45.6,13.766667,
40860,KOPER,45.55,13.733333,
40870,PIRAN,45.533333,13.566667,
40880,UMAG,45.433333,13.516667,
40940,ROVINJ,45.083333,13.633333,
40960,PULA,44.883333,13.8,
40985,BRSICA,45.033333,14.05,
41010,RIJEKA LUKA,45.333333,14.433333,
41030,BAKAR,45.3,14.533333,
14175,CALETA MINA ELENA,-52.683333,-71.9,
41045,OMISALJ,45.216667,14.55,
41090,SENJ,44.983333,14.9,
41220,ZADAR,44.116667,15.216667,
41290,SIBENIK,43.733333,15.883333,
40550,MOLFETTA,41.216667,16.6,
41320,SPLIT,43.5,16.433333,
41410,PLOCE,43.05,17.433333,
39990,TORRE ANNUNZIATA,40.75,14.45,
54671,MILNER BAY,-13.866667,136.416667,
54672,WEIPA,-12.666667,141.866667,
54675,GOVE,-12.2,136.7,
54690,KARUMBA,-17.483333,140.833333,
54760,HOBART,-42.883333,147.333333,
54810,PORT HUON,-43.166667,146.983333,
54830,DOVER,-43.316667,147.033333,
54870,STANLEY,-40.766667,145.283333,
54875,PORT LATTA,-40.833333,145.383333,
54880,BURNIE,-41.05,145.95,
54320,WHYALLA,-33.033333,137.583333,
53520,BALLINA,-28.866667,153.566667,
53610,NEWCASTLE,-32.916667,151.783333,
48295,JAZIRAT HALUL,25.683333,52.416667,
48320,SITRAH,26.166667,50.666667,
48325,MINA SALMAN,26.2,50.633333,
48335,DAMMAM,26.5,50.2,
48338,AL JUBAYL,27.083333,49.666667,
48340,RAS  TANNURAH,26.633333,50.166667,
48343,JU AYMAH OIL TERMINAL,26.933333,50.033333,
48356,MINA AZ ZAWR,28.733333,48.4,
48357,MINA ASH SHUAYBAH,29.033333,48.166667,
48360,MINA ABD ALLAH,29.016667,48.166667,
48361,MINA AL AHMADI,29.066667,48.166667,
48390,KHAWR AL AMAYA,29.783333,48.8,
48392,AL-BASRA OIL TERMINAL,29.683333,48.816667,
48399,UMM QASR,30.016667,47.95,
48400,AL BASRAH,30.516667,47.833333,
48420,KHORRAMSHAHR,30.433333,48.183333,
48165,AL AHMADI,14.833333,42.966667,
48190,ADEN,12.783333,44.95,
48210,AL MUKALLA,14.516667,49.116667,
34480,DUBLIN,53.35,-6.25,
34560,GREENORE,54.033333,-6.133333,
20340,KOTLIK,63.033333,-163.55,
34590,SILLOTH,54.866667,-3.4,
34610,WORKINGTON,54.566667,-3.633333,
34630,BARROW IN FURNESS,54.116667,-3.233333,
34640,HEYSHAM,54.033333,-2.916667,
34660,FLEETWOOD,53.916667,-3.016667,
34690,LIVERPOOL,53.416667,-3.0,
34700,MANCHESTER,53.483333,-2.266667,
33880,RATHMULLAN,55.1,-7.533333,
33930,KILLYBEGS,54.633333,-8.45,
33090,MALLAIG,57.0,-5.816667,
33140,TOBERMORY,56.616667,-6.066667,
33170,CRAIGNURE,56.466667,-5.7,
33190,CORPACH,56.85,-5.116667,
33250,OBAN,56.416667,-5.466667,
33280,PORT ELLEN,55.633333,-6.2,
33290,CRINAN (CANAL),56.083333,-5.566667,
33300,CAMPBELTOWN,55.433333,-5.6,
33310,LAMLASH HARBOR,55.533333,-5.116667,
28950,ECKERNFORDE,54.483333,9.833333,
28955,KAPPELN,54.666667,9.933333,
29005,FLENSBURG,54.8,9.433333,
29085,NEKSO,55.066667,15.133333,
29110,RONNE,55.1,14.7,
29120,HASLE,55.183333,14.7,
29130,CHRISTIANSO HARBOR,55.316667,15.183333,
29180,FAKSE LADEPLADS HAVN,55.216667,12.166667,
29220,KOGE,55.45,12.2,
29230,KOBENHAVN,55.7,12.616667,
29260,TUBORG,55.716667,12.583333,
29350,HELSINGOR,56.033333,12.616667,
29410,FREDERIKSVAERK,55.966667,12.016667,
29420,FREDERIKSSUND,55.833333,12.05,
29435,KYNDBYVAERKETS HAVN,55.816667,11.883333,
29440,HOLBAEK,55.716667,11.716667,
29490,KALUNDBORG,55.683333,11.1,
29520,KORSOR,55.333333,11.133333,
29530,SKAELSKOR,55.25,11.3,
29545,STIGSNAESVAERKET,55.2,11.25,
29555,NAESTVED,55.233333,11.75,
29560,VORDINGBORG,55.0,11.9,
29580,STUBBEKOBING,54.883333,12.05,
29600,STEGE,54.983333,12.283333,
28848,STRALSUND,54.316667,13.1,
28190,HELSINKI,60.166667,24.966667,
28210,PORVOO,60.3,25.633333,
28220,LOVIISA,60.45,26.233333,
28230,KOTKA,60.466667,26.966667,
28240,HAMINA,60.566667,27.2,
28300,VYBORG,60.716667,28.75,
28310,GAVAN VYSOTSK,60.616667,28.566667,
28360,PRIMORSK,60.366667,28.633333,
28370,SANKT-PETERBURG,59.933333,30.3,
14950,PUERTO DEL CALLAO,-12.05,-77.15,
14960,BAHIA DE ANCON,-11.75,-77.183333,
14970,CHANCAY,-11.583333,-77.25,
14980,PUERTO DE HUACHO,-11.116667,-77.616667,
14990,PUERTO SUPE,-10.8,-77.75,
15000,PUNTA LOBITOS (BAHIA DE HUARMEY),-10.1,-78.166667,
15030,PUERTO DE CHIMBOTE,-9.083333,-78.616667,
15050,SALAVERRY,-8.233333,-78.983333,
15110,PIMENTAL,-6.833333,-79.933333,
46970,MIKINDANI,-10.266667,40.133333,
20350,HAMILTON,62.9,-163.916667,
46975,MTWARA,-10.266667,40.2,
47010,DAR ES SALAAM,-6.816667,39.3,
47020,CHAKE CHAKE,-5.25,39.766667,
47100,MOMBASA,-4.066667,39.666667,
47105,KILIFI,-3.633333,39.866667,
47107,MALINDI,-3.216667,40.133333,
47150,MARKA,1.716667,44.783333,
47160,MUQDISHO,2.033333,45.35,
47310,FOMBONI,-12.266667,43.75,
47320,MOUTSAMOUDU,-12.15,44.4,
47400,MAHAJANGA,-15.716667,46.3,
46750,SALDANHA BAY,-33.033333,17.966667,
46770,CAPE TOWN,-33.916667,18.416667,
46207,OKRIKA,4.716667,7.083333,
46210,PORT HARCOURT,4.766667,7.0,
46225,ANTAN OIL TERMINAL,4.216667,8.333333,
46230,CALABAR,4.966667,8.316667,
32950,UIG,57.583333,-6.35,
32955,LOCHMADDY,57.6,-7.166667,
32980,CASTLE BAY,56.95,-7.483333,
32990,LOCHBOISDALE,57.15,-7.3,
33020,STORNOWAY HARBOR,58.183333,-6.366667,
33030,TARBERT,57.9,-6.816667,
32250,MACDUFF,57.666667,-2.5,
31750,SEAHAM,54.833333,-1.316667,
31760,SUNDERLAND,54.916667,-1.366667,
31765,TYNEMOUTH,55.0,-1.4,
31820,BLYTH,55.116667,-1.5,
53650,SYDNEY,-33.866667,151.2,
53655,BOTANY BAY,-34.0,151.233333,
53690,PORT KEMBLA,-34.483333,150.916667,
53710,JERVIS BAY,-35.116667,150.8,
53750,BATEMANS BAY,-35.7,150.166667,
53810,EDEN,-37.066667,149.916667,
53840,WELSHPOOL,-38.7,146.466667,
53930,WESTERN PORT,-38.35,145.233333,
54030,MELBOURNE,-37.833333,144.966667,
54050,GEELONG,-38.15,144.366667,
54120,WARRNAMBOOL,-38.4,142.483333,
54140,PORTLAND,-38.333333,141.6,
54200,KINGSCOTE,-35.633333,137.633333,
54220,PORT ADELAIDE,-34.85,138.5,
54236,ARDROSSAN,-34.433333,137.916667,
54255,PORT GILES,-35.033333,137.766667,
54280,WALLAROO,-33.933333,137.616667,
54290,PORT PIRIE,-33.183333,138.016667,
53100,FAKFAK,-2.933333,132.283333,
53115,AMAMAPARE,-4.816667,136.966667,
53130,MERAUKE,-8.483333,140.383333,
53150,DARU,-9.066667,143.2,
53160,PORT MORESBY,-9.466667,147.133333,
53165,ALOTOA,-10.316667,150.45,
53170,SAMARAI,-10.616667,150.666667,
53190,SULOGA HARBOR,-9.216667,152.766667,
53195,DISCOVERY BAY,-10.416667,150.416667,
53206,ORO BAY,-8.883333,148.483333,
53230,LAE,-6.733333,147.0,
53250,MADANG,-5.216667,145.816667,
40000,CASTELLAMMARE DI STABIA,40.7,14.483333,
40040,SALERNO,40.666667,14.75,
40060,VIBO VALENTIA MARINA,38.716667,16.133333,
40080,REGGIO DI CALABRIA,38.116667,15.65,
40100,MESSINA,38.2,15.566667,
40110,MILAZZO,38.216667,15.25,
40115,GIOIA TAURO,38.416667,15.9,
40130,PORTO DI PALERMO,38.133333,13.366667,
40150,TRAPANI,38.016667,12.5,
40170,MARSALA,37.783333,12.433333,
40180,MAZARA DEL VALLO,37.65,12.583333,
33340,ARDRISHAIG,56.016667,-5.45,
33370,ROTHESAY HARBOR,55.833333,-5.05,
33390,GREENOCK,55.95,-4.75,
33405,FINNART OIL TERMINAL,56.116667,-4.833333,
33450,BOWLING,55.933333,-4.483333,
33460,OLD KILPATRICK,55.916667,-4.466667,
33470,ROTHESAY DOCK,55.9,-4.4,
33480,RENFREW,55.883333,-4.383333,
33490,GLASGOW,55.866667,-4.283333,
33500,LARGS,55.8,-4.866667,
33515,HUNTERSTON,55.75,-4.883333,
33520,MILLPORT,55.75,-4.916667,
33530,ARDROSSAN,55.65,-4.816667,
33550,TROON,55.55,-4.683333,
33560,AYR,55.466667,-4.633333,
33570,STRANRAER,54.9,-5.033333,
33610,DOUGLAS,54.15,-4.466667,
33620,RAMSEY,54.316667,-4.366667,
33690,ARDGLASS,54.266667,-5.616667,
62100,MARUGAME KO,34.3,133.783333,
61690,UBE KO,33.933333,131.233333,
61410,URAGA KO,35.233333,139.716667,
61415,TAGONOURA KO,35.133333,138.7,
61420,SHIMODA KO,34.666667,138.95,
61425,OMAEZAKI KO,34.6,138.233333,
61460,SHIMIZU KO,35.016667,138.5,
61470,KINUURA KO,34.85,136.95,
61475,GAMAGORI KO,34.816667,137.216667,
61480,NAGOYA KO,35.066667,136.866667,
61490,YOKKAICHI,34.966667,136.633333,
61495,MATSUSAKA,34.6,136.566667,
61500,TOBA,34.483333,136.85,
61515,OWASE KO,34.066667,136.216667,
61540,TANABE KO,33.716667,135.366667,
61545,WAKAYAMA-SHIMOTSU KO,34.2,135.133333,
61547,SAKAI-SENBOKU,34.55,135.433333,
61555,AMAGASAKI,34.7,135.383333,
61560,KOBE,34.65,135.183333,
15140,PUERTO BAYOVAR,-5.833333,-81.05,
14400,CORONEL,-37.033333,-73.166667,
13810,PUERTO BELGRANO,-38.883333,-62.1,
13815,BAHIA BLANCA,-38.783333,-62.266667,
13820,PUERTO INGENIERO WHITE,-38.8,-62.266667,
13830,PUERTO NACIONAL,-38.8,-62.283333,
13840,PUERTO GALVAN,-38.783333,-62.3,
13860,SAN BLAS,-40.566667,-62.233333,
13900,PUERTO MADRYN,-42.766667,-65.033333,
13940,PUERTO SAN JULIAN,-49.316667,-67.7,
13950,PUERTO SANTA CRUZ,-50.016667,-68.516667,
13960,PUERTO GALLEGOS,-51.616667,-68.966667,
13980,USHUAIA,-54.816667,-68.3,
14020,PRINCE OLAV HARBOR,-54.033333,-37.15,
14040,STROMNESS HARBOR,-54.15,-36.7,
14090,PUERTO SARA,-52.633333,-70.2,
14095,CALETA CLARENCIA,-52.9,-70.1,
14130,PORT SAN JUAN DE LA JUAN,-53.633333,-70.916667,
31830,WARKWORTH HARBOUR,55.333333,-1.583333,
31860,BERWICK-UPON-TWEED,55.766667,-2.0,
31880,EYEMOUTH,55.866667,-2.083333,
31890,DUNBAR,56.0,-2.516667,
31930,LEITH,55.983333,-3.183333,
31940,GRANTON,55.983333,-3.216667,
31945,BRAEFOOT BAY TERMINAL,56.033333,-3.316667,
31972,HOUND POINT TERMINAL,56.0,-3.366667,
31980,ROSYTH,56.016667,-3.433333,
32010,GRANGEMOUTH,56.016667,-3.716667,
32030,BURNTISLAND,56.05,-3.233333,
32070,METHIL,56.183333,-3.0,
32170,DUNDEE,56.466667,-2.95,
32180,PERTH,56.4,-3.45,
32200,MONTROSE,56.7,-2.466667,
32220,ABERDEEN,57.15,-2.083333,
32230,PETERHEAD,57.5,-1.783333,
32240,FRASERBURGH HARBOR,57.683333,-2.0,
31720,TEESPORT,54.65,-1.133333,
31740,HARTLEPOOL,54.7,-1.183333,
31150,DORDRECHT,51.816667,4.65,
31210,VLISSINGEN,51.45,3.6,
31220,TERNEUZEN,51.35,3.816667,
31250,ANTWERPEN,51.216667,4.4,
31260,BRUXELLES,50.866667,4.35,
31270,GHENT,51.066667,3.733333,
31280,ZEEBRUGGE,51.333333,3.2,
31290,BRUGES,51.233333,3.216667,
31310,OOSTENDE,51.233333,2.916667,
31320,NIEUWPOORT,51.133333,2.75,
60440,WONSAN,39.166667,127.45,
60450,HUNGNAM,39.833333,127.616667,
60470,CH'AHO,40.2,128.65,
60500,CH'ONGJIN,41.766667,129.816667,
60540,POS'YET,42.65,130.8,
60610,VLADIVOSTOK,43.116667,131.9,
60720,BUKHTA GAYDAMAK,42.866667,132.683333,
60730,NAKHODKA,42.8,132.883333,
60795,SOVETSKAYA GAVAN,48.966667,140.283333,
60800,BUKHTA VANINO,49.083333,140.283333,
40200,PORTO EMPEDOCLE,37.283333,13.533333,
40210,LICATA,37.1,13.933333,
40220,GELA,37.066667,14.25,
40230,POZZALLO,36.716667,14.85,
40240,SIRACUSA,37.05,15.283333,
40250,AUGUSTA,37.216667,15.233333,
40270,CATANIA,37.5,15.1,
28615,LIELUPE,57.0,23.433333,
40300,LIPARI,38.483333,14.966667,
40330,VALLETTA HARBORS,35.9,14.516667,
40340,MARSAXLOKK,35.816667,14.55,
40440,CROTONE,39.083333,17.133333,
40470,TARANTO,40.466667,17.2,
40480,GALLIPOLI,40.05,17.983333,
40490,OTRANTO,40.15,18.5,
40510,MONOPOLI,40.95,17.3,
40530,BARI,41.133333,16.866667,
39261,PORTO DI ORISTANO,39.866667,8.55,
39310,PORTO TORRES,40.833333,8.4,
39360,SAN REMO,43.816667,7.783333,
39370,IMPERIA,43.883333,8.033333,
39420,RADA DI VADO,44.266667,8.433333,
39440,SAVONA,44.316667,8.5,
39470,GENOVA,44.4,8.933333,
39520,LA SPEZIA,44.1,9.833333,
39550,MARINA DI CARRARA,44.033333,10.033333,
39590,LIVORNO,43.55,10.316667,
39610,VADA,43.35,10.45,
53282,VANIMO,-2.683333,141.133333,
53300,THURSDAY ISLAND,-10.583333,142.216667,
53340,CAIRNS,-16.916667,145.783333,
53360,MOURILYAN HARBOUR,-17.6,146.133333,
31215,HANSWEERT,51.45,4.0,
53370,LUCINDA,-18.516667,146.333333,
53380,TOWNSVILLE,-19.266667,146.816667,
53400,MACKAY,-21.116667,149.216667,
53405,HAY POINT,-21.283333,149.3,
53440,PORT ALMA,-23.583333,150.85,
53450,GLADSTONE,-23.85,151.25,
53460,BUNDABERG,-24.866667,152.35,
53490,BRISBANE,-27.466667,153.033333,
61567,HIMEJI,34.75,134.633333,
61570,AIOI,34.783333,134.466667,
61573,KAKOGAWA,34.7,134.833333,
61580,UNO KO,34.483333,133.95,
61590,HIBI KO,34.45,133.933333,
61595,MIZUSHIMA KO,34.5,133.75,
61630,ONOMICHI-ITOZAKI,34.383333,133.166667,
61640,KURE,34.233333,132.55,
61655,KANOKAWA KO,34.183333,132.433333,
61662,IWAKUNI KO,34.183333,132.25,
61675,KUDAMATSU,34.0,131.866667,
61680,TOKUYAMA,34.033333,131.816667,
61400,YOKOSUKA KO,35.283333,139.666667,
61040,ALEKSANDROVSK -SAKHALINSKIY,50.9,142.133333,
61045,LAZAREV,52.216667,141.516667,
61060,MOSKAL VO,53.583333,142.5,
47420,MAINTIRANO,-18.066667,44.016667,
47470,TOLANARO,-25.033333,47.0,
47500,MANAKARA,-22.116667,48.05,
47590,MAROANTSETRA,-15.45,49.816667,
47620,IHARANA,-13.35,50.0,
47690,PORT EST,-20.933333,55.316667,
47700,SAINT-PIERRE,-21.35,55.466667,
47800,DIEGO GARCIA,-7.35,72.466667,
47820,BERBERA,10.45,45.016667,
47850,DJIBOUTI,11.6,43.133333,
47880,ASSAB,13.0,42.75,
47900,MITSIWA HARBOR,15.616667,39.466667,
47940,PORT SUDAN,19.6,37.233333,
47970,AL QUSAYR,26.1,34.283333,
47980,BUR SAFAGA,26.733333,33.95,
47985,ZEIT BAY TERMINAL,27.833333,33.6,
33680,WARREN POINT,54.1,-6.25,
31600,WISBECH,52.666667,0.15,
30985,EEMSHAVEN,53.45,6.833333,
30695,BUSUM,54.133333,8.866667,
30785,BUTZFLETH,53.65,9.516667,
30725,ITZEHOE,53.916667,9.516667,
30740,NEUHAUS,53.8,9.033333,
28912,ORTH,54.45,11.05,
30480,LEMVIG,56.583333,8.283333,
29905,SKAERBAEK,55.516667,9.616667,
30500,HOLSTEBRO-STUER,56.5,8.583333,
30457,THISTED,56.95,8.7,
28750,POLICE,53.566667,14.566667,
28605,SALACGRIVA,57.7,24.366667,
28654,BUTINGE OIL TERMINAL,56.033333,20.95,
29390,HUNDESTED,55.966667,11.85,
61850,FUSHIKI-TOYAMA,36.766667,137.133333,
61820,FUKUI KO,36.183333,136.1,
38610,IBIZA,38.9,1.45,
38080,HORTA,38.533333,-28.633333,
61550,OSAKA,34.65,135.433333,
62110,SAKAIDE KO,34.333333,133.85,
70,KEFLAVIK,64.0,-22.55,
80,HAFNARFJORDUR,64.066667,-21.95,
100,REYKJAVIK,64.15,-21.933333,
160,BILDUDALUR,65.683333,-23.6,
260,SIGLUFJORHURD,66.15,-18.916667,
60480,KIMCH'AEK,40.666667,129.2,
60510,NAJIN,42.233333,130.3,
60520,SENBONG,42.333333,130.4,
610,PAAMUIT (FREDERIKSHAB),62.0,-49.666667,
49370,KARAIKAL PORT,10.833333,79.866667,
60325,PYEONGTAEK HANG,37.0,126.8,
700,ATTU,67.95,-53.733333,
60215,JINZHOU WAN,40.75,121.1,
60200,QINHUANGDAO,39.933333,119.616667,
810,ILLULISSAT (JAKOBSHAVN),69.216667,-51.1,
35250,PENZANCE,50.116667,-5.533333,
59970,SHANGHAI,31.216667,121.5,
35300,MEVAGISSEY,50.266667,-4.783333,
38100,PONTA DELGADA,37.733333,-25.666667,
38110,VILA DO PORTO,36.933333,-25.15,
49875,MALONG MARINE TERMINAL,4.633333,104.816667,
50300,SUNGAIGERONG,-2.983333,104.833333,
50652,BLANGLANCANG,5.233333,97.1,
50971,POLENG OIL FIELD,-6.65,112.916667,
50441,PULAU BAAI,-3.916667,102.283333,
50231,RAMBA,-2.616667,104.133333,
51646,KUALA BELAIT,4.633333,114.2,
49962,PELABUHAN SUNGAI UDANG,2.25,102.133333,
13920,COMODORO RIVADAVIA,-45.866667,-67.466667,
13930,PUERTO DESEADO,-47.75,-65.9,
13970,RIO GRANDE,-53.783333,-67.683333,
14000,STANLEY,-51.7,-57.833333,
14060,GRYTVIKEN,-54.266667,-36.5,
14080,PUNTA DELGADA,-52.466667,-69.55,
14100,RADA PUNTA ARENAS,-53.166667,-70.9,
14110,BAHIA AGUA FRESCA,-53.383333,-70.966667,
14150,PUERTO YARTOU,-53.883333,-70.15,
56350,ENITWETAK ISLAND,11.333333,162.333333,
56370,KWAJALEIN,8.716667,167.733333,
56590,POHNPEI HARBOR,6.983333,158.2,
56600,MOEN,7.433333,151.833333,
56760,KAVIENG HARBOR,-2.583333,150.8,
56810,RABAUL,-4.2,152.183333,
57005,RINGGI COVE,-8.116667,157.1,
37230,BAYONNE,43.5,-1.466667,
38870,TOULON,43.1,5.916667,
39070,PORTO VECCHIO,41.583333,9.283333,
61605,FUKUYAMA,34.433333,133.433333,
62894,VITINO,67.083333,32.316667,
45460,TABARKA,36.966667,8.766667,
45350,ABU KHAMMASH,33.066667,11.816667,
48348,RAS AL MISHAB,28.116667,48.633333,
48349,RAS AL KHAFJI,28.433333,48.583333,
38433,ISLAS HORMIGAS,37.65,-0.65,
38585,LAS HORMIGAS,41.866667,3.183333,
33200,FORT WILLIAM,56.816667,-5.116667,
33210,GLENSANDA,56.566667,-5.533333,
33160,LOCHALINE,56.55,-5.766667,
38010,LAGOS,37.1,-8.616667,
48327,KHALIFA BIN SALMAN,26.25,50.75,
60205,SUIZHANG GANG,40.066667,121.05,
44790,BODRUM,37.033333,27.433333,
47110,LAMU,-2.266667,40.9,
60376,GWANGYANG HANG,34.85,127.8,
61245,ISHIKARI BAY NEW PORT,43.216667,141.283333,
51695,SAPANGAR BAY,6.083333,116.116667,
28425,SILLAMAE,59.4,27.05,
49825,PORT LANGKAWI,6.433333,99.766667,
790,QASIGIANNGUIT-CHRISTIANSHAB,68.816667,-51.183333,
35340,FOWEY HARBOUR,50.333333,-4.633333,
1000,PITUFFIK (THULE AIR BASE),76.533333,-68.866667,
35370,PLYMOUTH,50.366667,-4.15,
35400,BRIXHAM HARBOUR,50.4,-3.516667,
23440,HAUGESUND,59.416667,5.266667,
23450,KOPERVIK,59.283333,5.316667,
23451,KARSTO,59.266667,5.516667,
23455,ESPEVAER,59.583333,5.15,
23460,SAUDA,59.65,6.35,
23465,AKRAHAMN,59.266667,5.183333,
23470,SANDNES,58.85,5.75,
23480,STAVANGER,58.966667,5.75,
23485,SKUDENESHAVN,59.15,5.266667,
23487,TANANGER,58.933333,5.583333,
23490,EGERSUND,58.45,6.0,
23500,REKEFJORD,58.333333,6.266667,
23505,KIRKEHAMN,58.233333,6.533333,
23510,FLEKKEFJORDEN,58.3,6.666667,
23520,FARSUND,58.083333,6.816667,
23525,STUSVIK,58.0,7.033333,
23530,MANDAL,58.016667,7.466667,
23550,KRISTIANSAND,58.15,8.0,
23600,ARENDAL,58.466667,8.766667,
23620,TVEDESTRAND,58.616667,8.933333,
23630,RISOR,58.716667,9.233333,
23640,KRAGERO,58.866667,9.416667,
23660,BREVIK,59.066667,9.7,
23670,PORSGRUNN,59.15,9.666667,
23680,SKIEN,59.2,9.6,
23700,LARVIK,59.05,10.033333,
23710,SANDEFJORDEN,59.116667,10.233333,
23720,TONSBERG,59.283333,10.416667,
23730,VALLOY,59.266667,10.5,
57320,NOUMEA,-22.283333,166.433333,
57325,BAIE UGUE,-21.15,165.55,
46454,M'BYA OIL TERMINAL,-3.883333,10.933333,
46570,PORTO AMBOIM,-10.733333,13.75,
46580,SUMBE,-11.2,13.833333,
46690,JAMESTOWN,-15.916667,-5.716667,
46710,EDINBURGH OF THE SEVEN SEAS,-37.05,-12.3,
49830,PELABUHAN BASS,6.316667,99.833333,
49850,PULAU PINANG,5.416667,100.35,
49995,SERANGOON HARBOR,1.4,103.95,
20135,PALISADES POINT,52.233333,-174.166667,
20150,CONSTANTINE HARBOR,51.4,179.3,
20160,KISKA,51.966667,177.55,
20170,ALCAN HARBOR,52.733333,174.066667,
23736,SLAGENSTANGEN,59.316667,10.516667,
23750,HORTEN,59.416667,10.5,
23760,HOLMESTRAND,59.483333,10.3,
23770,SVELVIK,59.616667,10.4,
23780,DRAMMEN,59.733333,10.25,
23790,STORSTEILENE,59.816667,10.6,
23810,OSLO,59.916667,10.75,
23820,DROBAK,59.666667,10.65,
23310,MOSTERHAMN,59.7,5.4,
23330,SAGVAG,59.766667,5.383333,
23340,LEIRVIK,59.783333,5.5,
22920,MOSJOEN,65.833333,13.2,
22940,TJOTTA,65.833333,12.433333,
22990,BRONNOYSUND,65.466667,12.2,
23020,BERG,65.366667,12.2,
23040,RORVIK,64.866667,11.25,
23046,SALSBRUKET,64.8,11.866667,
310,AKUREYRI,65.683333,-18.083333,
400,SEYDHISFJORDHUR,65.266667,-14.0,
430,ESKIFJORDHUR,65.066667,-14.016667,
480,HORNABJORDUR,64.25,-15.233333,
560,NANORTALIK HAVN,60.116667,-45.2,
585,NARSAQ,60.916667,-46.05,
590,NARSARSSUAQ,61.15,-45.433333,
605,GRONNEDAL (KANGILINNGUIT),61.233333,-48.1,
640,NUUK,64.183333,-51.75,
670,MANIITSOQ,65.416667,-52.916667,
690,SISIMIUT,66.916667,-53.7,
760,AASIAAT,68.7,-52.866667,
840,QEQERTARSUAQ,69.233333,-53.533333,
49982,JOHOR,1.433333,103.9,
51855,NORTH PULAU LAUT COAL TERMINAL,-3.2,116.283333,
51865,TANAH MERAH,-1.816667,116.166667,
51803,TANJUNG SANGATA,0.366667,117.566667,
50516,TANJUNG BALAI KARIMUN,0.983333,103.433333,
50518,KUALA TANJUNG,3.366667,99.483333,
50055,SEKUPANG,1.133333,103.916667,
50932,TANJUNG GEREM,-5.966667,105.983333,
61875,EASTERN PART OF NIIGATA-KO,38.016667,139.233333,
61379,FUNABASHI,35.666667,139.95,
61353,SOMA,37.833333,140.95,
61695,HIKARI,33.95,131.933333,
61862,HIMEKAWA,37.033333,137.85,
61564,HIROHATA,34.766667,134.633333,
62118,HIBIKINADA,33.933333,130.833333,
61932,MEGA,34.783333,134.7,
61642,MITSUKOJIMA,34.183333,132.516667,
62333,MATSU-SHIMA,32.933333,129.6,
61664,NAMIKATA,34.116667,132.9,
61277,NOSHIRO KO,40.216667,140.0,
61760,SAKAIMINATO,35.533333,133.233333,
61566,SHIKAMA,34.766667,134.65,
62115,TOBATA,33.916667,130.816667,
62113,YANAI,33.95,132.133333,
940,KAJALLEQ UPERNAVIK,72.15,-55.533333,
1020,POND INLET,72.75,-76.75,
1035,PADLOPING ISLAND,67.033333,-62.733333,
1040,PANGNIRTUNG,66.133333,-65.75,
44807,AKSAZ LIMANI,36.833333,28.383333,
35410,TORQUAY HARBOUR,50.466667,-3.533333,
90,SKERJAFJORDUR,64.15,-22.016667,
35450,PORTLAND HARBOUR,50.583333,-2.433333,
105,GRUNDARTANGI,64.266667,-22.0,
35460,WEYMOUTH HARBOUR,50.616667,-2.45,
35550,COWES HARBOUR,50.766667,-1.3,
35560,YARMOUTH HARBOUR,50.7,-1.5,
35590,FAWLEY MARINE TERMINAL,50.816667,-1.333333,
35600,PORTSMOUTH HARBOUR,50.8,-1.1,
62121,YAHATA,33.866667,130.816667,
61541,YURA,33.95,135.1,
56945,QUEEN CAROLA HARBOR,-5.166667,154.55,
60385,CHINAE,35.133333,128.65,
53318,CAPE FLATTERY HARBOR,-14.95,145.35,
45814,NOUAKCHOTT,18.033333,-16.033333,
56840,BIALLA,-5.3,150.983333,
48257,PORT OF SOHAR,24.516667,56.633333,
20140,ADAK NAVAL AIR STATION,51.866667,-176.633333,
48298,AL SHAHEEN TERMINAL,26.583333,52.0,
48300,AL RAYYAN TERMINAL,26.65,51.55,
50000,KEPPEL - (EAST SINGAPORE),1.283333,103.85,
50017,JURONG ISLAND,1.283333,103.733333,
35790,SAINT-VALERY-SUR-SOMME,50.183333,1.616667,
35800,LE TREPORT,50.066667,1.366667,
35810,DIEPPE,49.933333,1.083333,
35835,PORT DU HAVRE-ANTIFER,49.65,0.15,
35840,PORT OF LE HAVRE,49.483333,0.116667,
57446,SATTAHIP,12.616667,100.916667,
35850,PORT OF ROUEN,49.45,1.066667,
35610,LITTLEHAMPTON HARBOUR,50.783333,-0.533333,
170,THINGEYRI,65.883333,-23.483333,
190,ISAFJORDUR,66.066667,-23.116667,
250,SAUDARKROKUR,65.75,-19.666667,
320,HUSAVIK,66.033333,-17.333333,
23050,NAMSOS,64.466667,11.5,
23053,MALM,64.066667,11.233333,
23055,STEINKJER,64.016667,11.5,
23058,DJUPVIKEN,63.783333,11.45,
23060,LEVANGER,63.75,11.3,
23070,LANGSTEIN,63.533333,10.9,
23075,MURUVIK,63.433333,10.85,
23080,HOMMELVIK,63.416667,10.8,
23090,TRONDHEIM,63.433333,10.4,
23095,THAMSHAMM,63.316667,9.883333,
23100,KRISTIANSUND,63.116667,7.733333,
23105,SUNNDALSORA,62.683333,8.55,
23107,BUD,62.9,6.916667,
23108,HAROYSUND,62.9,6.966667,
23110,MOLDE,62.733333,7.166667,
23111,ANDALSNES,62.566667,7.683333,
23112,HAREID,62.366667,6.033333,
23115,MOLDTUSTRANDA,62.3,5.65,
23118,ORSTAV,62.2,6.133333,
23120,ALESUND,62.466667,6.166667,
23125,MALOY,61.933333,5.116667,
23130,FLORO,61.6,5.033333,
23136,ARDALSTANGEN,61.233333,7.716667,
23138,MONGSTAD,60.816667,5.033333,
23140,VAKSDAL,60.483333,5.733333,
23160,BERGEN,60.4,5.316667,
23180,BRATTHOLMEN,60.35,5.166667,
23195,TRANNESET,60.416667,5.016667,
23220,STRANDVIK,60.166667,5.666667,
23230,NORHEIMSUND,60.366667,6.15,
23240,ODDA,60.083333,6.55,
35870,DEAUVILLE,49.366667,0.083333,
35880,PORT DE CAEN,49.183333,-0.35,
35885,OUISTREHAM,49.283333,-0.25,
23300,MELING,59.783333,5.116667,
22790,HEMNESBERGET,66.233333,13.616667,
20920,HAMMERFEST,70.666667,23.666667,
20930,SORVAER,70.633333,21.983333,
20940,BREDVIK,70.583333,22.133333,
21120,OKSFJORD,70.233333,22.35,
21130,ALTA,69.966667,23.25,
21140,TALVIK,70.05,22.966667,
21310,TROMSO,69.65,18.966667,
21380,GIBOSTAD,69.35,18.083333,
21490,FINNSNES,69.233333,17.966667,
21495,MEDBY,68.916667,17.733333,
21510,SJOVEGAN,68.883333,17.833333,
21610,HARSTAD,68.8,16.55,
21660,ANDENES,69.333333,16.133333,
21670,SORTLAND,68.7,15.416667,
48240,QALHAT LNG TERMINAL,22.683333,59.4,
45110,ASHQELON,31.666667,34.5,
45377,ASHTART OIL TERMINAL,34.283333,11.383333,
45365,ZARZIS,33.5,11.116667,
45368,DIDON TERMINAL,33.783333,11.9,
40245,MELILLI OIL TERMINAL,37.116667,15.25,
60431,TONGHAE,37.533333,129.15,
59940,NINGBO,29.883333,121.55,
45515,PORT METHANIER,36.883333,6.95,
45819,M BAO OIL TERMINAL,14.716667,-17.4,
45823,LYNDIANE,14.166667,-16.166667,
46161,FORCADOS OIL TERMINAL,5.166667,5.183333,
46286,MOUDI MARINE TERMINAL,4.116667,8.483333,
46287,EBOME MARINE TERMINAL,2.8,9.816667,
48198,NISHTUN,15.816667,52.2,
48374,DOHA HARBOR,29.383333,47.8,
48495,BANDAR-E SHAHID REAJIE,27.1,56.066667,
48520,BANDAR ABBAS,27.15,56.2,
48533,BANDAR TAHERI OFFSHORE TERMINAL,27.65,52.35,
48259,KHAWR KHASAB,26.216667,56.233333,
48370,AL KUWAYT,29.35,47.933333,
48175,AL MUKHA,13.316667,43.25,
48202,ASH SHIHR OIL TERMINAL,14.733333,49.5,
45084,HADERA,32.466667,34.9,
48053,RAS SUDR,29.583333,32.7,
45151,DAMIETTA,31.483333,31.75,
45140,BUR SAID (PORT SAID),31.266667,32.3,
45175,EL HAMRA OIL TERMINAL,30.983333,28.866667,
46545,SOYO ANGOLA LNG TERMINAL,-6.116667,12.333333,
45180,MERSA MATRUH,31.35,27.233333,
47974,HAMRAWEIN,26.25,34.2,
48310,AL MANAMAH,26.233333,50.583333,
48440,KHOSROWABAD,30.166667,48.416667,
45337,BOURI OIL FIELD,33.9,12.65,
45323,KHOMS,32.666667,14.25,
45444,MENZEL BOURGUIBA,37.15,9.8,
45432,RADES,36.816667,10.3,
45525,DJEN-DJEN,36.816667,5.883333,
45802,AGADIR,30.433333,-9.633333,
46306,PUNTA EUROPA TERMINAL,3.783333,8.716667,
46320,MALABO,3.75,8.783333,
46330,LUBA,3.5,8.566667,
46375,SANTO ANTONIO,1.65,7.45,
46380,SAO TOME,0.35,6.733333,
46460,YOMBO TERMINAL,-4.45,11.1,
46495,FUTILA TERMINAL,-5.45,12.183333,
46488,KUITO OIL FIELD,-5.466667,11.5,
420,NESKAUPSTADUR,65.15,-13.683333,
35650,NEWHAVEN HARBOUR,50.783333,0.05,
35690,RYE HARBOUR,50.933333,0.766667,
450,BUDIR,64.933333,-14.016667,
510,VESTMANNAEYJAR,63.433333,-20.283333,
59930,HAIMEN,28.683333,121.45,
35710,DOVER HARBOR,51.116667,1.333333,
35715,RAMSGATE,51.333333,1.416667,
45796,EL JORF LASFAR,33.116667,-8.616667,
46008,ESPOIR MARINE TERMINAL,5.05,-4.45,
45970,BAOBAB MARINE TERMINAL,4.966667,-4.55,
46235,ODUDU TERMINAL,4.0,7.766667,
46238,OKONO TERMINAL,3.983333,7.3,
46240,OKWORI TERMINAL,3.85,6.983333,
46208,ONNE,4.683333,7.15,
45163,EL MAADIYA,31.266667,30.15,
45165,AL ISKANDARIYH (ALEXANDRIA),31.166667,29.833333,
46549,GIRASSOL TERMINAL,-7.65,11.683333,
48630,KANDLA,23.033333,70.216667,
35980,ALDERNEY HARBOUR,49.733333,-2.2,
35990,SAINT SAMPSON,49.483333,-2.516667,
36000,SAINT PETER PORT,49.45,-2.533333,
36110,GRANVILLE,48.833333,-1.6,
36130,SAINT-MALO,48.65,-2.016667,
36220,LE LEGUE,48.533333,-2.75,
51180,PROBOLINGGO,-7.716667,113.216667,
46237,AGBAMI OIL TERMINAL,3.466667,5.566667,
46239,EGINA OIL TERMINAL,3.066667,6.7,
46241,AKPO OIL TERMINAL,3.133333,6.816667,
46452,OLOWI MARINE TERMINAL,-3.133333,10.216667,
46459,DUSSAFU TERMINAL,-4.25,10.816667,
46541,KIZOMBA A TERMINAL,-6.316667,11.05,
46535,PSVM TERMINAL,0.0,0.0,
46542,KIZOMBA B TERMINAL,-6.35,11.15,
46543,KIZOMBA C TERMINAL,-6.316667,11.283333,
46551,DALIA TERMINAL,-7.683333,11.766667,
46552,GREATER PLUTONIO TERMINAL,-7.833333,12.1,
46451,ETAME TERMINAL,-3.75,10.516667,
46544,PSVM TERMINAL,-6.25,10.733333,
35732,DUNKERQUE PORT OUEST,51.066667,2.35,
35740,GRAVELINES,51.0,2.116667,
35750,CALAIS,50.966667,1.85,
12570,IQUITOS,-3.75,-73.233333,
12585,ITAQUI,-2.566667,-44.366667,
21690,STOKKMARKNES,68.566667,14.916667,
21820,REINE,67.933333,13.1,
21840,BALLSTAD,68.066667,13.7,
21870,STAMSUND,68.116667,13.85,
21880,HENNINGSVAER,68.15,14.216667,
21900,SVOLVAER,68.233333,14.583333,
21910,SKROVA HAVN,68.166667,14.666667,
21920,BRETTESNES,68.233333,14.85,
21950,LODINGEN,68.416667,16.0,
21970,ULVIK,68.566667,16.266667,
22010,LILANDSGRUNNEN,68.483333,16.883333,
22030,NARVIK,68.433333,17.416667,
22050,LITLE BALLANGEN,68.333333,16.85,
22120,DRAG,68.05,16.083333,
22140,KORSNES,68.25,16.066667,
22160,TRANOY,68.183333,15.666667,
22270,KJERRINGOY,67.516667,14.766667,
22290,BODO,67.283333,14.383333,
22295,LAKSELV,67.366667,15.6,
22320,FAUSKE,67.25,15.366667,
22350,ROGNAN,67.1,15.416667,
22520,ORNES,66.866667,13.716667,
22540,GLOMFJORD,66.816667,13.983333,
22750,SANDNESSJOEN,66.016667,12.633333,
22760,MO INLET,66.316667,14.133333,
20910,KVALSUND,70.5,23.983333,
51280,AMPENAN,-8.566667,116.066667,
51350,WAINGAPU,-9.633333,120.216667,
51870,STAGEN,-3.3,116.15,
51910,SAMPIT,-2.516667,113.0,
52065,BITUNG,1.433333,125.183333,
52220,LUWUK,-0.95,122.8,
20310,BETHEL,60.816667,-161.716667,
20330,KWIGUK,62.733333,-164.466667,
20360,ST MICHAEL,63.483333,-162.033333,
20370,UNALAKLEET,63.883333,-160.783333,
20390,SOLOMON,64.55,-164.4,
20400,NOME,64.5,-165.416667,
20410,GRANTLEY HARBOR,65.266667,-166.333333,
20420,SAVOONGA,63.683333,-170.4,
20425,SHISHMAREF,66.25,-166.083333,
20430,DEERING,66.083333,-162.733333,
20450,KOTZEBUE,66.916667,-162.583333,
46553,ESTRELA OIL FIELD,-6.45,12.4,
46691,NORTH POINT,-7.883333,-14.366667,
12491,VILA DO CONDE,-1.55,-48.75,
12661,GUAMARE OIL TERMINAL,-4.866667,-36.283333,
46171,UKPOKITI MARINE TERMINAL,5.716667,4.833333,
13965,SAN SEBASTIAN BAY,-53.166667,-68.5,
13981,VILLA CONSTITUCION,-33.3,-60.333333,
14075,PUERTO WILLIAMS,-54.933333,-67.6,
14671,CALETA PATILLOS,-20.733333,-70.2,
53133,JAYAPURA,-2.533333,140.716667,
51440,DILI,-8.533333,125.583333,
51400,KUPANG,-10.166667,123.583333,
34390,NEW ROSS,52.383333,-6.95,
34190,CASTLETOWN BEARHAVEN,51.65,-9.916667,
46485,TAKULA TERMINAL,-5.216667,11.783333,
47625,ANTSOHIM BONDRONA,-13.083333,48.833333,
46292,KOME KRIBI 1 MARINE TERMINAL,2.916667,9.8,
46262,LIMBOH TERMINAL,3.983333,9.15,
46335,CEIBA TERMINAL,1.416667,9.233333,
46340,COGO,1.083333,9.7,
46310,SERPENTINA TERMINAL,3.8,8.083333,
45036,SIDON/ZAHRANI TERMINAL,33.533333,35.316667,
44808,ANTALYA OFFSHORE TERMINAL,36.816667,30.6,
44542,BOTAS NATURAL GAS TERMINAL,41.0,27.983333,
44802,BOTAS DORTYOL OIL TERMINAL,36.866667,36.133333,
44801,TOROS GUBRE,36.916667,35.966667,
44803,YAKACIK,36.716667,36.183333,
42327,CHALKIS,38.466667,23.6,
44804,DELTA TERMINAL,36.85,36.166667,
44740,DIKILI,39.016667,26.816667,
44622,GEBZE,40.766667,29.55,
44751,GULLUK,37.25,27.616667,
44603,YARIMCA,40.8,29.7,
44210,GELENDZHIK,44.55,38.066667,
43566,CERNAVODA,44.333333,28.05,
43558,BASARABI,44.166667,28.433333,
34200,KILRUSH,52.633333,-9.5,
23139,STURA,60.616667,4.85,
25700,SANDARNE,61.266667,17.183333,
26720,DOMSJO,63.266667,18.733333,
26880,OBBOLA,63.7,20.333333,
27535,VEITSILUOTO,65.7,24.616667,
27740,PORI,61.483333,21.8,
27990,PARGAS,60.283333,22.066667,
29455,NYKOBING (MOR),56.766667,11.866667,
29546,GULFHAVEN,55.2,11.266667,
1335,GOOSE BAY,53.366667,-60.3,
43155,AYIOS NIKOLAOS,35.2,25.716667,
43340,GEMLIK,40.416667,29.116667,
12650,PORTO DE MUCURIPE,-3.716667,-38.483333,
12690,NATAL,-5.783333,-35.2,
12760,PORT DE ARACAJU,-10.916667,-37.05,
12770,PORT DE SALVADOR,-12.966667,-38.516667,
12850,VITORIA,-20.316667,-40.333333,
12855,TUBARAO,-20.283333,-40.25,
12920,RIO DE JANEIRO,-22.9,-43.166667,
12930,NITEROI,-22.883333,-43.116667,
12980,PARANAGUA,-25.5,-48.516667,
13000,SAO FRANCISCO,-26.25,-48.633333,
13120,MONTEVIDEO,-34.9,-56.216667,
13140,COLONIA,-34.466667,-57.85,
13150,NUEVA PALMIRA,-33.883333,-58.416667,
13250,PUERTO DE ASUNCION,-25.266667,-57.683333,
13560,SANTA FE,-31.65,-60.7,
43565,DANUBE-BLACK SEA CANAL,44.266667,28.183333,
43562,MEDGIDIA,44.25,28.266667,
43568,MIDIA,44.35,28.666667,
43572,TULCEA,45.166667,28.816667,
43700,BELGOROD-DNESTROVSKY,46.183333,30.366667,
43677,DNIPRO-BUZKYY,46.733333,31.883333,
43673,PORT OKTYABRSK,46.833333,31.933333,
43747,UST-DUNAISK,45.466667,29.7,
42600,KAVALA,40.933333,24.4,
43334,ALIAGA,38.833333,26.933333,
43388,AMBARLI,40.966667,28.7,
43384,BORUSAN FERTILIZER JETTY,40.416667,29.1,
42420,KYMASSI,38.833333,23.466667,
42378,ASPROPIRGOS,38.033333,23.6,
42434,ACHLADI,38.9,22.816667,
42345,ASTAKOS,38.483333,21.1,
43093,AKRA KAVONISI,35.516667,23.633333,
52480,TELUK BEO,4.233333,126.783333,
52560,PATANI,0.366667,128.75,
52660,WAHAI,-2.783333,129.5,
53000,MIEI,-2.733333,134.5,
53020,TG. SORONG,-0.883333,131.233333,
50922,MERAK MAS TERMINAL,-5.916667,105.983333,
61380,TOKYO KO,35.666667,139.75,
36290,PONTRIEUX,48.7,-3.15,
36300,TREGUIER,48.783333,-3.233333,
36360,MORLAIX,48.583333,-3.833333,
36370,PORT DE ROSCOFF-BLOSCON,48.733333,-3.983333,
48650,BEDI,22.516667,70.033333,
50730,BELAWAN,3.783333,98.683333,
45172,SIDI KERIR (KURAYR),31.1,29.616667,
51120,GRESIK,-7.15,112.65,
45080,HAIFA,32.816667,35.0,
45030,BAYRUT,33.9,35.5,
40500,BRINDISI,40.65,17.983333,
62635,PORT BERINGOVSKY,63.066667,179.366667,
45795,EL JADIDA,33.25,-8.5,
25360,GUSTAVSBERG,59.316667,18.383333,
25370,SANDHAMN,59.283333,18.916667,
25380,STOCKHOLM,59.333333,18.05,
25395,VASTERAS,59.616667,16.55,
25440,GRISSLEHAMN,60.1,18.816667,
25460,HALLSTAVIK,60.05,18.583333,
25480,HARGSHAMN,60.183333,18.45,
25550,SKUTSKAR,60.65,17.4,
24690,OSKARSHAMN,57.266667,16.45,
24720,FIGEHOLM,57.366667,16.5,
23830,MOSS,59.45,10.666667,
23835,SARPSBORG,59.266667,11.1,
23840,FREDRIKSTAD,59.2,10.95,
23850,HALDEN,59.116667,11.383333,
23870,STROMSTAD,58.933333,11.166667,
13610,SAN LORENZO,-32.75,-60.733333,
13630,ROSARIO,-32.95,-60.633333,
13670,SAN PEDRO,-33.583333,-59.816667,
13690,PUERTO IBICUY,-33.75,-59.183333,
13740,CONCEPCION DEL URUGUAY,-32.483333,-58.233333,
13760,BUENOS AIRES,-34.6,-58.366667,
13790,QUEQUEN,-38.583333,-58.7,
13800,PUERTO ROSALES,-38.933333,-62.066667,
20470,WAINWRIGHT,70.65,-160.0,
20480,BARROW,71.283333,-156.783333,
20483,PRUDHOE BAY,70.333333,-148.416667,
20486,BERNARD HARBOR,70.133333,-143.633333,
20491,TUKTOYAKTUK,69.45,-133.0,
20492,POLICE POINT,70.183333,-124.75,
20493,PAULATUK,69.35,-124.083333,
20494,PEARCE POINT,69.816667,-122.75,
20495,TYSOE POINT,69.6,-120.75,
20496,SACHS HARBOR,71.966667,-125.25,
20497,CAPE YOUNG,68.933333,-116.933333,
20498,BERNARD HARBOR,68.783333,-114.766667,
20499,LADY FRANKLIN POINT,68.483333,-113.266667,
20500,COPPERMINE,67.8,-115.05,
20510,CAMBRIDGE BAY,69.116667,-105.066667,
20520,RESOLUTE BAY,74.683333,-95.9,
20560,BARENTSBURG,78.066667,14.233333,
20570,LONGYEARBYEN,78.2,15.7,
20580,NY ALESUND,78.916667,11.95,
20650,KIRKENES,69.733333,30.05,
20690,VADSO,70.066667,29.75,
20695,BATSFJORDEN,70.633333,29.733333,
20700,VARDO,70.366667,31.116667,
20710,BERLEVAG,70.866667,29.1,
20740,KJOLLEFJORDEN,70.95,27.333333,
20800,HONNINGSVAG,70.983333,26.0,
20180,MASSACRE BAY,52.833333,173.233333,
61465,MIKAWA,34.716667,137.3,
48680,PORBANDAR,21.633333,69.6,
23890,GREBBESTAD,58.683333,11.266667,
23900,FJALLBACKA,58.6,11.283333,
23905,BOVALLSTRAND,58.483333,11.333333,
23910,HUNNEBOSTRAND,58.433333,11.3,
23970,LYSEKIL,58.266667,11.433333,
23990,UDDEVALLA,58.35,11.916667,
24010,MARSTRAND,57.883333,11.583333,
24020,GOTEBORG,57.7,11.966667,
24030,VARBERG,57.116667,12.25,
24040,FALKENBERG,56.9,12.5,
24050,HALMSTAD,56.666667,12.866667,
24100,HOGANAS,56.2,12.55,
24120,HELSINGBORG,56.05,12.7,
24180,LANDSKRONA,55.866667,12.833333,
24210,MALMO,55.616667,13.0,
24220,LIMHAMN,55.583333,12.933333,
24250,TRELLEBORG,55.366667,13.15,
24260,YSTAD,55.433333,13.833333,
24280,SIMRISHAMN,55.55,14.366667,
24300,AHUS,55.933333,14.316667,
24310,SOLVESBORG,56.05,14.583333,
24370,KARLSHAMN,56.166667,14.866667,
24440,RONNEBY,56.183333,15.3,
24460,KARLSKRONA,56.166667,15.6,
24530,BERGKVARA,56.383333,16.1,
24570,KALMAR,56.666667,16.366667,
24635,STORA JATTERSON,57.1,16.566667,
23823,TOFTE,59.55,10.566667,
23829,KAMBO,59.466667,10.683333,
23355,HUSNES,59.866667,5.766667,
14940,CONCHAN OIL TERMINAL,-12.166667,-77.0,
14955,LA PAMPILLA OIL TERMINAL,-11.933333,-77.133333,
48267,ZIRKUH OIL FIELD,24.866667,53.05,
48152,SALIF,15.3,42.666667,
56270,BARBERS POINT TERMINAL,21.266667,-158.1,
45809,LAAYOUNE,27.083333,-13.433333,
31560,FELIXSTOWE,51.95,1.316667,
75,STRAUMSVIK,64.05,-22.05,
185,BOLUNGAVIK,66.166667,-23.233333,
280,DALVIK,65.983333,-18.516667,
33145,KILKEEL,54.05,-5.983333,
542,QUTDLEQ,61.516667,-42.216667,
543,KUSANARTOQ,61.766667,-42.216667,
34650,LIVERPOOL BAY TERMINAL,53.533333,-3.55,
35700,FOLKESTONE HARBOUR,51.083333,1.2,
42120,LAVRIO,37.7,24.066667,
43925,RENI,45.433333,28.3,
44345,SUPSA MARINE TERMINAL,42.1,41.716667,
38083,LAJES,38.4,-28.266667,
48635,NAVLAKHI,22.95,70.45,
49685,YETAGUN MARINE TERMINAL,13.05,96.85,
38090,ANGRA DO HEROISMO,38.65,-27.216667,
38095,PRAIA DE VITORIA,38.716667,-27.05,
33780,KILROOT,54.733333,-5.716667,
43120,RETHIMNON,35.366667,24.466667,
40980,ZALIV RASA,45.05,14.066667,
41350,DUGI RAT,43.45,16.65,
41420,KORCULA,42.933333,17.133333,
40120,TERMINI IMERESE,37.983333,13.7,
39720,PORTOFERRAIO,42.816667,10.333333,
40505,TORRE DEL GRECO,40.783333,14.366667,
42070,SPETSES,37.266667,23.166667,
38398,PUERTO DE GARRUCHA,37.183333,-1.816667,
38543,VILLANUEVA Y GELTRU,41.233333,1.733333,
34025,DROGHEDA,53.716667,-6.3,
34196,VALENTIA,51.933333,-10.3,
32702,RUNAVIK,62.116667,-6.716667,
32676,VAGUR,61.483333,-6.8,
35210,ST. MARY'S (SCILLY ISL.),49.916667,-6.316667,
33577,BANGOR,54.65,-5.666667,
31895,BIRD PORT,51.566667,-2.966667,
34648,GARLSTON,53.35,-2.9,
31665,HOWDENDYKE,53.733333,-0.883333,
33985,LANCASTER,54.05,-2.783333,
34685,MOSTYN,53.316667,-3.266667,
31668,NEW HOLLAND,53.7,-0.366667,
31430,TILBURY,51.466667,0.333333,
1600,CATALINA HARBOR,48.5,-53.083333,East_Coast
1611,CLARENVILLE,48.15,-53.95,East_Coast
1670,ST JOHN'S,47.566667,-52.7,East_Coast
1710,ARGENTIA,47.3,-53.983333,East_Coast
1715,COME BY CHANCE HARBOR,47.8,-54.016667,East_Coast
1750,PORT DE ST PIERRE,46.783333,-56.166667,East_Coast
1795,PORT AUX BASQUES,47.566667,-59.133333,East_Coast
1810,STEPHENVILLE,48.533333,-58.533333,East_Coast
1820,ST GEORGE'S,48.45,-58.45,East_Coast
1830,CORNER BROOK,48.95,-57.95,East_Coast
1880,BLANC SABLON,51.416667,-57.133333,Great_Lakes
1890,HAVRE ST PIERRE,50.233333,-63.6,Great_Lakes
1955,SEPT ILES,50.2,-66.383333,Great_Lakes
1957,POINTE NOIRE,50.166667,-66.483333,Great_Lakes
1958,PORT CARTIER,50.033333,-66.783333,Great_Lakes
1990,MATANE,48.85,-67.533333,Great_Lakes
2015,BAIE COMEAU,49.233333,-68.133333,Great_Lakes
2030,RIMOUSKI,48.45,-68.516667,Great_Lakes
2110,LA BAIE (PORT ALFRED),48.333333,-70.883333,Great_Lakes
2130,CHICOUTIMI (PORT SAGUENAY),48.433333,-71.066667,Great_Lakes
2150,RIVIERE DU LOUP,47.833333,-69.516667,Great_Lakes
2180,QUEBEC,46.816667,-71.216667,Great_Lakes
2200,PORT DE BECANCOUR,46.4,-72.383333,Great_Lakes
2210,TROIS RIVIERES,46.35,-72.55,Great_Lakes
2220,SOREL,46.05,-73.116667,Great_Lakes
2235,MONTREAL,45.516667,-73.55,Great_Lakes
2300,VAUDREUIL,45.4,-74.033333,Great_Lakes
2310,OKA SUR LE LAC,45.466667,-74.083333,Great_Lakes
2320,HUDSON,45.466667,-74.133333,Great_Lakes
2330,ST PLACIDE,45.533333,-74.2,Great_Lakes
2340,ST ANDREWS EAST,45.566667,-74.333333,Great_Lakes
2350,CARILLON,45.566667,-74.366667,Great_Lakes
2370,CHUTE A BLONDEAU,45.583333,-74.466667,Great_Lakes
2380,GRENVILLE,45.633333,-74.6,Great_Lakes
2390,HAWKESBURY,45.616667,-74.616667,Great_Lakes
2400,FASSETT,45.65,-74.866667,Great_Lakes
2420,MONTEBELLO,45.65,-74.933333,Great_Lakes
2430,PAPINEAUVILLE,45.616667,-75.016667,Great_Lakes
2460,THURSO,45.6,-75.233333,Great_Lakes
2470,ROCKLAND,45.55,-75.3,Great_Lakes
2480,CUMBERLAND,45.516667,-75.4,Great_Lakes
2490,MASSON,45.533333,-75.416667,Great_Lakes
2510,GATINEAU,45.483333,-75.65,Great_Lakes
2530,HULL,45.433333,-75.7,Great_Lakes
2550,BEAUHARNOIS,45.316667,-73.883333,Great_Lakes
2560,COTEAU LANDING,45.25,-74.2,Great_Lakes
2570,ST ZOTIQUE,45.25,-74.25,Great_Lakes
2590,ST ANICET,45.133333,-74.366667,Great_Lakes
2600,SOUTH LANCASTER,45.133333,-74.5,Great_Lakes
2620,CORNWALL,45.016667,-74.733333,Great_Lakes
2670,CARDINAL,44.783333,-75.383333,Great_Lakes
2680,LOWER LAKES TERMINAL,44.733333,-75.466667,Great_Lakes
2700,BROCKVILLE,44.583333,-75.666667,Great_Lakes
2710,ROCKPORT,44.383333,-75.933333,Great_Lakes
2720,GANANOQUE,44.333333,-76.166667,Great_Lakes
2730,WOLFE ISLAND,44.2,-76.433333,Great_Lakes
2740,KINGSTON,44.233333,-76.5,Great_Lakes
2770,OGDENSBURG,44.7,-75.5,Great_Lakes
2790,ALEXANDRIA BAY,44.333333,-75.916667,Great_Lakes
2800,CLAYTON,44.233333,-76.05,Great_Lakes
2830,MILLHAVEN,44.2,-76.733333,Great_Lakes
2880,PICTON,44.016667,-77.133333,Great_Lakes
2930,BELLEVILLE,44.15,-77.4,Great_Lakes
2940,TRENTON,44.1,-77.566667,Great_Lakes
2960,COBOURG,43.95,-78.166667,Great_Lakes
2970,PORT HOPE,43.933333,-78.283333,Great_Lakes
2975,CONTRECOUR,45.883333,-73.2,Great_Lakes
2980,OSHAWA,43.866667,-78.816667,Great_Lakes
2990,PORT WHITBY,43.85,-78.933333,Great_Lakes
3000,TORONTO,43.616667,-79.383333,Great_Lakes
3010,PORT CREDIT,43.55,-79.583333,Great_Lakes
3015,CLARKSON,43.5,-79.6,Great_Lakes
3020,OAKVILLE,43.433333,-79.666667,Great_Lakes
3030,BRONTE,43.4,-79.716667,Great_Lakes
3050,HAMILTON,43.25,-79.85,Great_Lakes
3060,PORT DALHOUSIE,43.216667,-79.266667,Great_Lakes
3070,PORT WELLER,43.233333,-79.216667,Great_Lakes
3090,WELLAND,43.0,-79.25,Great_Lakes
3092,THOROLD,43.083333,-79.716667,Great_Lakes
3095,ST CATHERINE,43.183333,-79.283333,Great_Lakes
3100,NIAGARA,43.25,-79.066667,Great_Lakes
3110,QUEENSTON,43.166667,-79.066667,Great_Lakes
3130,CHAUMONT,44.066667,-76.133333,Great_Lakes
3150,SACKETS HARBOR,43.95,-76.116667,Great_Lakes
3170,OSWEGO,43.466667,-76.516667,Great_Lakes
3190,SODUS BAY,43.266667,-76.983333,Great_Lakes
3200,ROCHESTER,43.266667,-77.6,Great_Lakes
3220,YOUNGSTOWN,43.25,-79.05,Great_Lakes
3250,PORT COLBORNE,42.883333,-79.25,Great_Lakes
3260,PORT MAITLAND,42.85,-79.583333,Great_Lakes
3270,PORT DOVER,42.783333,-80.2,Great_Lakes
3310,PORT STANLEY,42.666667,-81.2,Great_Lakes
3320,RONDEAU,42.266667,-81.9,Great_Lakes
3330,PELEE I NORTH WHARF,41.816667,-82.666667,Great_Lakes
3340,PELEE I WEST DOCK,41.766667,-82.683333,Great_Lakes
3350,LEAMINGTON,42.033333,-82.6,Great_Lakes
3360,KINGSVILLE,42.016667,-82.733333,Great_Lakes
3380,AMHERSTBURG,42.1,-83.1,Great_Lakes
3390,WINDSOR,42.316667,-83.033333,Great_Lakes
3420,TONAWANDA,43.033333,-78.883333,Great_Lakes
3430,BUFFALO,42.883333,-78.883333,Great_Lakes
3440,DUNKIRK,42.483333,-79.333333,Great_Lakes
3450,ERIE,42.15,-80.1,Great_Lakes
3460,CONNEAUT,41.966667,-80.55,Great_Lakes
3470,ASHTABULA,41.9,-80.8,Great_Lakes
3480,FAIRPORT,41.766667,-81.3,Great_Lakes
3490,CLEVELAND,41.5,-81.716667,Great_Lakes
3500,LORAIN,41.466667,-82.183333,Great_Lakes
3510,VERMILION,41.433333,-82.366667,Great_Lakes
3520,HURON,41.4,-82.55,Great_Lakes
3530,SANDUSKY,41.45,-82.716667,Great_Lakes
3540,PORT CLINTON,41.516667,-82.933333,Great_Lakes
3550,PUT IN BAY,41.65,-82.816667,Great_Lakes
3560,TOLEDO,41.7,-83.466667,Great_Lakes
3570,MONROE,41.883333,-83.333333,Great_Lakes
3580,TRENTON,42.133333,-83.166667,Great_Lakes
3590,WYANDOTTE,42.2,-83.15,Great_Lakes
3610,ROUGE RIVER,42.283333,-83.116667,Great_Lakes
3620,DETROIT,42.333333,-83.033333,Great_Lakes
3660,SOMBRA,42.716667,-82.483333,Great_Lakes
3670,COURTRIGHT,42.816667,-82.466667,Great_Lakes
3700,SARNIA,42.983333,-82.416667,Great_Lakes
3710,POINT EDWARD,43.0,-82.416667,Great_Lakes
3730,GODERICH,43.75,-81.733333,Great_Lakes
3750,PORT ELGIN,44.433333,-81.4,Great_Lakes
3760,SOUTHAMPTON,44.5,-81.383333,Great_Lakes
3770,TOBERMORY,45.266667,-81.666667,Great_Lakes
3790,LIONS HEAD,44.983333,-81.25,Great_Lakes
3810,WIARTON,44.75,-81.133333,Great_Lakes
3860,OWEN SOUND,44.583333,-80.933333,Great_Lakes
3880,MEAFORD,44.616667,-80.6,Great_Lakes
3890,THORNBURY,44.566667,-80.45,Great_Lakes
3900,COLLINGWOOD,44.5,-80.233333,Great_Lakes
3930,PENETANGUISHENE,44.766667,-79.933333,Great_Lakes
3940,MIDLAND,44.75,-79.916667,Great_Lakes
3950,TIFFIN,44.75,-79.85,Great_Lakes
3960,PORT MCNICOLL,44.75,-79.8,Great_Lakes
3970,VICTORIA HARBOUR,44.75,-79.816667,Great_Lakes
3980,WAUBAUSHENE,44.766667,-79.716667,Great_Lakes
4000,PORT SEVERN,44.8,-79.716667,Great_Lakes
4020,DEPOT HARBOUR,45.316667,-80.1,Great_Lakes
4030,PARRY SOUND,45.333333,-80.033333,Great_Lakes
4050,BYNG INLET,45.766667,-80.566667,Great_Lakes
4060,KEY HARBOUR,45.883333,-80.75,Great_Lakes
4080,KILLARNEY,45.966667,-81.516667,Great_Lakes
4120,MANITOWANING,45.75,-81.8,Great_Lakes
4130,SHEGUIANDAH,45.9,-81.916667,Great_Lakes
4140,LITTLE CURRENT,45.983333,-81.933333,Great_Lakes
4150,HONORA,45.866667,-82.166667,Great_Lakes
4160,KAGAWONG,45.916667,-82.25,Great_Lakes
4170,GORE BAY,45.916667,-82.466667,Great_Lakes
4180,MELDRUM BAY,45.933333,-83.116667,Great_Lakes
4200,BLIND RIVER,46.183333,-82.95,Great_Lakes
4210,COCKBURN,45.95,-83.316667,Great_Lakes
4220,THESSALON,46.25,-83.566667,Great_Lakes
4230,BRUCE MINES,46.283333,-83.783333,Great_Lakes
4240,HILTON,46.25,-83.883333,Great_Lakes
4250,DESBARATS,46.333333,-83.916667,Great_Lakes
4270,RICHARDS LANDING,46.3,-84.033333,Great_Lakes
4290,SAULT STE MARIE,46.516667,-84.35,Great_Lakes
4320,ALGONAC,42.616667,-82.516667,Great_Lakes
4330,MARINE CITY,42.716667,-82.5,Great_Lakes
4340,ST CLAIR,42.816667,-82.483333,Great_Lakes
4350,PORT HURON,43.0,-82.433333,Great_Lakes
4370,HARBOR BEACH,43.85,-82.65,Great_Lakes
4380,PORT HOPE,43.95,-82.7,Great_Lakes
4400,BAY CITY,43.6,-83.866667,Great_Lakes
4410,SAGINAW,43.433333,-83.933333,Great_Lakes
4420,ALABASTER,44.183333,-83.55,Great_Lakes
4430,TAWAS CITY,44.266667,-83.5,Great_Lakes
4450,AU SABLE,44.4,-83.316667,Great_Lakes
4460,OSCODA,44.416667,-83.316667,Great_Lakes
4470,ALPENA,45.066667,-83.416667,Great_Lakes
4480,ROCKPORT,45.2,-83.383333,Great_Lakes
4490,CALCITE,45.416667,-83.783333,Great_Lakes
4500,ROGERS CITY,45.45,-83.816667,Great_Lakes
4510,CHEBOYGAN,45.65,-84.466667,Great_Lakes
4520,MACKINAW CITY,45.783333,-84.716667,Great_Lakes
4530,MACKINAC ISLAND,45.85,-84.616667,Great_Lakes
4540,ST IGNACE,45.85,-84.716667,Great_Lakes
4560,SAULT STE MARIE,46.5,-84.35,Great_Lakes
4580,ST. JAMES HARBOR,45.733333,-85.516667,Great_Lakes
4590,HARBOR SPRINGS,45.433333,-84.983333,Great_Lakes
4600,PETOSKEY,45.366667,-84.966667,Great_Lakes
4610,CHARLEVOIX,45.316667,-85.266667,Great_Lakes
4620,TRAVERSE CITY,44.766667,-85.616667,Great_Lakes
4630,LELAND,45.016667,-85.766667,Great_Lakes
4640,FRANKFORT,44.633333,-86.25,Great_Lakes
4650,MANISTEE,44.25,-86.316667,Great_Lakes
4670,LUDINGTON,43.95,-86.45,Great_Lakes
4680,WHITE LAKE,43.383333,-86.35,Great_Lakes
4690,MUSKEGON,43.233333,-86.266667,Great_Lakes
4700,GRAND HAVEN,43.066667,-86.233333,Great_Lakes
4710,HOLLAND,42.783333,-86.133333,Great_Lakes
4720,SAUGATUCK,42.666667,-86.2,Great_Lakes
4730,SOUTH HAVEN,42.4,-86.283333,Great_Lakes
4740,ST JOSEPH,42.116667,-86.483333,Great_Lakes
4750,MICHIGAN CITY,41.733333,-86.9,Great_Lakes
4760,GARY,41.616667,-87.333333,Great_Lakes
4770,BUFFINGTON,41.633333,-87.416667,Great_Lakes
4780,INDIANA HARBOR,41.666667,-87.433333,Great_Lakes
4790,CALUMET HARBOR,41.733333,-87.516667,Great_Lakes
4800,CHICAGO,41.883333,-87.6,Great_Lakes
4810,WILMETTE,42.083333,-87.683333,Great_Lakes
4820,GREAT LAKES,42.3,-87.833333,Great_Lakes
4830,WAUKEGAN,42.366667,-87.816667,Great_Lakes
4840,KENOSHA,42.583333,-87.816667,Great_Lakes
4850,RACINE,42.733333,-87.783333,Great_Lakes
4860,MILWAUKEE,43.033333,-87.883333,Great_Lakes
